ID,BROKERTITLE,TYPE,PRICE,BEDS,BATH,PROPERTYSQFT,FORMATTED_ADDRESS,LATITUDE,LONGITUDE,COUNTY
1,Brokered by Serhant,Condo for sale,195000000,7,10,17545.0,"217 W 57th St, New York, NY 10019, USA",40.7663935,-73.9809909,New York County
2,Brokered by Sowae Corp,House for sale,260000,4,2,2015.0,"620 Sinclair Ave, Staten Island, NY 10312, USA",40.5418051,-74.1961086,Richmond County
3,Brokered by COMPASS,Condo for sale,69000,3,1,445.0,"2 E 55th St, New York, NY 10022, USA",40.7613979,-73.9746128,New York County
4,Brokered by Sowae Corp,House for sale,690000,5,2,4004.0,"584 Park Pl, Brooklyn, NY 11238, USA",40.6743632,-73.9587248,Kings County
5,Brokered by Douglas Elliman - 575 Madison Ave,Condo for sale,899500,2,2,2184.207862,"157 W 126th St #1b, New York, NY 10027, USA",40.809448,-73.946777,New York County
6,Brokered by Connie Profaci Realty,House for sale,16800000,8,16,33000.0,"177 Benedict Rd, Staten Island, NY 10304, USA",40.5950017,-74.1064235,Richmond County
7,Brokered by CENTURY 21 MK Realty,Co-op for sale,440000,2,1,978.0,"1350 Ocean Pkwy #5g, Brooklyn, NY 11230, USA",40.6157378,-73.9696944,Kings County
8,Brokered by Engel & Volkers Americas,Co-op for sale,375000,2,1,850.0,"800 Grand Concourse #2j, Bronx, NY 10451, USA",40.8248699,-73.9229829,Bronx County
9,Brokered by COMPASS,Co-op for sale,259000,3,1,2184.207862,"34-41 85th St #1b, Flushing, NY 11372, USA",40.7531191,-73.8818757,Queens County
10,Brokered by Jamie & Connie Real Estate Grp,Co-op for sale,430000,2,2,2184.207862,"91-15 Lamont Ave #6d, Elmhurst, NY 11373, USA",40.7438639,-73.8745722,Queens County
11,Brokered by Corcoran Chelsea/Flatiron,Co-op for sale,895000,3,1,2184.207862,"61 Jane St #6n, New York, NY 10014, USA",40.7382981,-74.0058899,New York County
12,Brokered by Awaye Realty,Condo for sale,549000,2,2,1000.0,"4654 Amboy Rd #2b, Staten Island, NY 10312, USA",40.5406209,-74.1671632,Richmond County
13,Brokered by Realty Executives Today,Townhouse for sale,975000,3,2,1734.0,"28-31 Hobart St, Flushing, NY 11377, USA",40.7607676,-73.9056672,Queens County
14,Brokered by Dorsa Group Realty,Co-op for sale,199000,3,1,325.0,"9430 Ridge Blvd #6d, Brooklyn, NY 11209, USA",40.6181029,-74.0369047,Kings County
15,Brokered by Coldwell Banker Realty,Co-op for sale,350000,1,1,700.0,"5800 Arlington Ave Apt 21s, Bronx, NY 10471, USA",40.9073699,-73.9065578,Bronx County
16,Brokered by Keller Williams Rlty Landmark,Condo for sale,599000,2,2,974.0,"92-29 Queens Blvd #3h, Rego Park, NY 11374, USA",40.7324713,-73.8670804,Queens County
17,Brokered by Radiant Estates LLC,House for sale,639999,3,2,1260.0,"27 Clove Way, Staten Island, NY 10301, USA",40.6207403,-74.1114362,Richmond County
18,"Brokered by Apaus, Inc",Condo for sale,1300000,2,2,1244.0,"10724 71st Rd #9f, Forest Hills, NY 11375, USA",40.7202429,-73.8430513,Queens County
19,Brokered by Keller Williams Ny Realty,Multi-family home for sale,1100000,6,3,2837.0,"1038 Throgs Neck Expy, Bronx, NY 10465, USA",40.8343936,-73.8221101,Bronx County
20,Brokered by Martino Realty Group,Condo for sale,349900,1,1,651.0,"165 Cromwell Ave #2b, Staten Island, NY 10304, USA",40.5902064,-74.0958034,Richmond County
21,Brokered by Elizabeth Marra,House for sale,750000,2,2,1330.0,"280 Loretto St, Staten Island, NY 10307, USA",40.5039785,-74.2396555,Richmond County
22,Brokered by CENTURY 21 Milestone Realty,Multi-family home for sale,1690000,6,4,2200.0,"149-07 85th Rd, Jamaica, NY 11435, USA",40.710749,-73.809486,Queens County
23,"Brokered by Nest Seekers International, Long Island",Co-op for sale,325000,1,1,2184.207862,"35-45 81st St e1, Jackson Heights, NY 11372, USA",40.7505078,-73.8851355,Queens County
24,Brokered by Du Chris Realty,Co-op for sale,230000,1,1,2184.207862,"33-24 Junction Blvd, Jackson Heights, NY 11372, USA",40.7557689,-73.8734231,Queens County
25,Brokered by Ashford Homes,Multi-family home for sale,1299888,10,6,3156.0,"310 Hillside Ave #312, Staten Island, NY 10304, USA",40.6155667,-74.0869554,Richmond County
26,NoBroker,Multi-family home for sale,925000,5,2,2750.0,"543 Hollywood Ave, Bronx, NY 10465, USA",40.8242389,-73.8173809,Bronx County
27,Brokered by Get Listed Get Sold NYC,Condo for sale,329000,1,2,794.0,"47 Lynn Ct, Staten Island, NY 10314, USA",40.6210398,-74.1504313,Richmond County
28,Brokered by RJM Realty Empire Inc.,Multi-family home for sale,1300000,10,8,5040.0,"366 Union Ave #4, Staten Island, NY 10303, USA",40.6274381,-74.1581613,Richmond County
29,Brokered by RE MAX Edge,Multi-family home for sale,848000,5,4,2080.0,"544 Hinsdale St, Brooklyn, NY 11207, USA",40.6615475,-73.898309,Kings County
30,Brokered by H P Greenfield Real Estate Ltd,Co-op for sale,279000,1,1,750.0,"1801 Ocean Ave #4a, Brooklyn, NY 11230, USA",40.6179165,-73.9546305,Kings County
31,Brokered by Ashford Homes LLC,Condo for sale,528000,1,1,602.0,"1238 63rd St #432, Brooklyn, NY 11219, USA",40.6275896,-74.0016198,Kings County
32,Brokered by Ashford Homes,Multi-family home for sale,1299888,11,4,3156.0,"310 Hillside Ave #312, Staten Island, NY 10304, USA",40.6155667,-74.0869554,Richmond County
33,Brokered by E Realty International Corp,Co-op for sale,275000,1,1,2184.207862,"44-55 Kissena Blvd #5f, Flushing, NY 11355, USA",40.7528774,-73.8211834,Queens County
34,Brokered by Corcoran Park Slope,Condo for sale,1165000,1,1,815.0,"338 Berry St #4e, Brooklyn, NY 11249, USA",40.711969,-73.9649468,Kings County
35,Brokered by Staten Island Homes Realty Corp,Multi-family home for sale,1199000,6,5,3290.0,"10 Simon Ct, Staten Island, NY 10307, USA",40.5159256,-74.2361135,Richmond County
36,Brokered by Exp Realty,Multi-family home for sale,700000,6,2,3053.0,"229 W Tremont Ave, Bronx, NY 10453, USA",40.852813,-73.9176871,Bronx County
37,Brokered by Century 21 Realty First,Multi-family home for sale,2150000,8,4,3200.0,"2226 63rd St, Brooklyn, NY 11204, USA",40.614446,-73.9795824,Kings County
38,Brokered by E Realty International Corp,Multi-family home for sale,1280000,7,5,2460.0,"86-05 91st Ave, Jamaica, NY 11421, USA",40.688312,-73.856322,Queens County
39,Brokered by Brown Harris Stevens,Co-op for sale,199900,1,1,2184.207862,"828 Gerard Ave #5f, Bronx, NY 10451, USA",40.8260352,-73.9256625,Bronx County
40,Brokered by Winzone Realty Inc,Co-op for sale,369000,2,1,2184.207862,"43-40 Union St #3d, Flushing, NY 11355, USA",40.753455,-73.8209077,Queens County
41,Brokered by Prestige Homes Ny Inc,Multi-family home for sale,699000,4,3,1591.0,"111-31 141st St, Jamaica, NY 11435, USA",40.6847504,-73.8027331,Queens County
42,Brokered by Brown Harris Stevens,Co-op for sale,4250000,3,2,2400.0,"123 Prince St Apt 1f, New York, NY 10012, USA",40.725464,-73.9999212,New York County
43,Brokered by Weichert Realtors TMT Group,Multi-family home for sale,825000,2,2,2184.207862,"32-39 Jordan St, Flushing, NY 11358, USA",40.768457,-73.789417,Queens County
44,Brokered by American Homes Group,Condo for sale,329000,2,1,837.0,"55 Austin Pl APT 4L, Staten Island, NY 10304, USA",40.6315346,-74.0856344,Richmond County
45,Brokered by Wonica REALTORS & Appraisers,Multi-family home for sale,889000,2,2,1520.0,"17 S Greenleaf Ave, Staten Island, NY 10314, USA",40.6233188,-74.1259917,Richmond County
46,Brokered by First Class Homes Inc,Multi-family home for sale,769000,2,2,2184.207862,"101-55 112th St, South Richmond Hill, NY 11419, USA",40.6868333,-73.8309133,Queens County
47,Brokered by eXp Realty BKNY,Multi-family home for sale,1200000,4,2,2536.0,"66 Bay 22nd St, Brooklyn, NY 11214, USA",40.6042861,-74.0012526,Kings County
48,Brokered by VYLLA HOME,Co-op for sale,220500,2,1,900.0,"350 Richmond Terrace Apt 3n, Staten Island, NY 10301, USA",40.6481488,-74.0847983,Richmond County
49,Brokered by RE MAX Edge,Multi-family home for sale,1999000,3,3,2739.0,"259 80th St, Brooklyn, NY 11209, USA",40.6281691,-74.0297598,Kings County
50,Brokered by Douglas Elliman  -111 Fifth Ave,Condo for sale,1650000,2,2,1267.0,"473 Hicks St APT 4, Brooklyn, NY 11231, USA",40.6866098,-73.9997131,Kings County
51,"Brokered by Homes R Us Realty of NY, Inc.",Multi-family home for sale,1049000,4,4,2554.0,"342 Manhattan St, Staten Island, NY 10307, USA",40.5016233,-74.2417531,Richmond County
52,Brokered by American Homes Group,House for sale,998800,3,4,2400.0,"1191 Clove Rd, Staten Island, NY 10301, USA",40.6175,-74.103996,Richmond County
53,Brokered by DEGI - Douglas Elliman Real Estate,For sale,3150000,3,2,1952.0,"184 Lincoln Pl #2, Brooklyn, NY 11217, USA",40.6754035,-73.9742051,Kings County
54,Brokered by Brown Harris Stevens - 445 Park Avenue,Co-op for sale,849000,1,1,2184.207862,"263 West End Ave #14c, New York, NY 10023, USA",40.7802357,-73.9846328,New York County
55,Brokered by Piastro Realty LLC,Co-op for sale,559500,1,1,800.0,"50 Brighton 1st Rd #5h, Brooklyn, NY 11235, USA",40.5751942,-73.9669983,Kings County
56,Brokered by Douglas Elliman - 575 Madison Ave,Co-op for sale,750000,1,1,835.0,"333 E 66th St #8e, New York, NY 10065, USA",40.7643711,-73.9593578,New York County
57,Brokered by Douglas Elliman - 575 Madison Ave,Condo for sale,1900000,2,2,1029.0,"150 Rivington St #3g, New York, NY 10002, USA",40.7193408,-73.9856438,New York County
58,Brokered by Corcoran Williamsburg Bedford,Condo for sale,1250000,2,2,1201.0,"1105 Cortelyou Rd #301, Brooklyn, NY 11218, USA",40.6400234,-73.9676099,Kings County
59,Brokered by COMPASS,Condo for sale,1395000,2,2,1182.0,"737 Bergen St #1b, Brooklyn, NY 11238, USA",40.6787789,-73.9643728,Kings County
60,Brokered by Monticello Real Estate Group,Co-op for sale,198000,1,1,2184.207862,"83-55 Woodhaven Blvd #1a, Woodhaven, NY 11421, USA",40.700309,-73.8535466,Queens County
61,Brokered by Better Homes and Gardens Real Estate Safari Realty,Contingent,619888,3,2,1400.0,"35 Center Pl, Staten Island, NY 10306, USA",40.5632116,-74.1002521,Richmond County
62,Brokered by Serhant,Condo for sale,1595000,3,3,1413.0,"924 Lafayette Ave, Brooklyn, NY 11221, USA",40.6915139,-73.935444,Kings County
63,Brokered by Douglas Elliman - 575 Madison Ave,Condo for sale,655000,3,2,803.0,"1504 Jefferson Ave, Brooklyn, NY 11237, USA",40.6967268,-73.9074036,Kings County
64,Brokered by Serhant,Condo for sale,1175000,2,2,1115.0,"924 Lafayette Ave #2, Brooklyn, NY 11221, USA",40.6915139,-73.935444,Kings County
65,Brokered by Momentum Real Estate LLC,Multi-family home for sale,798000,3,4,2150.0,"425 Father Capodanno Blvd, Staten Island, NY 10305, USA",40.5874844,-74.0701056,Richmond County
66,Brokered by Corcoran Chelsea/Flatiron,Condo for sale,31000000,3,4,4492.0,"111 W 57th St #50, New York, NY 10019, USA",40.764953,-73.977568,New York County
67,Brokered by Gosen Properties Inc,Foreclosure,269000,5,2,2184.207862,"241-49 148th Dr, Jamaica, NY 11422, USA",40.6534433,-73.741373,Queens County
68,Brokered by Douglas Elliman - 575 Madison Ave,Condo for sale,1650000,2,2,1065.0,"200 E 94th St APT 414, New York, NY 10128, USA",40.7833546,-73.9499982,New York County
69,Brokered by Douglas Elliman - 575 Madison Ave,Condo for sale,1650000,2,2,1065.0,"200 E 94th St APT 414, New York, NY 10128, USA",40.7833546,-73.9499982,New York County
70,Brokered by COMPASS,Townhouse for sale,12950000,5,4,3344.0,"214 W 11th St, New York, NY 10014, USA",40.7363219,-74.0018035,New York County
71,Brokered by Brown Harris Stevens - 1926 Broadway,Condo for sale,5750000,3,2,2223.0,"250 E 21st St #12b, New York, NY 10010, USA",40.736608,-73.9822819,New York County
72,Brokered by Sowae Corp,Multi-family home for sale,250000,5,2,2184.207862,"130-24 150th St, Jamaica, NY 11436, USA",40.66911,-73.789339,Queens County
73,Brokered by Keller Williams Realty Empire,House for sale,585000,3,2,1100.0,"192 Colfax Ave, Staten Island, NY 10306, USA",40.5784263,-74.105437,Richmond County
74,Brokered by BROWN HARRIS STEVENS BROOKLYN LLC,House for sale,8750000,6,6,2184.207862,"8200 Narrows Ave, Brooklyn, NY 11209, USA",40.6282935,-74.0379695,Kings County
75,"Brokered by Tom Marco Real Estate, Inc.",House for sale,595000,3,1,1316.0,"1509 E 48th St, Brooklyn, NY 11234, USA",40.6239146,-73.9291226,Kings County
76,Brokered by Engel & Volkers Brownstone Brooklyn,Condo for sale,215000,1,1,625.0,"195 Prince St #1r, New York, NY 10012, USA",40.7267732,-74.002538,New York County
77,Built by Toll Brothers,For sale,950000,1,1,621.0,"218 W 103rd St, New York, NY 10025, USA",40.7986579,-73.9679035,New York County
78,Brokered by Sowae Corp,House for sale,314000,3,1,1572.0,"850 E 39th St, Brooklyn, NY 11210, USA",40.6362368,-73.939679,Kings County
79,Brokered by Brown Harris Stevens,Condo for sale,395000,5,1,1000.0,"110 E 71st St, New York, NY 10021, USA",40.7700395,-73.9638872,New York County
80,Brokered by Prospes Real Estate Corp,Multi-family home for sale,600000,2,2,2184.207862,"1406 Mac Donough Pl, Bronx, NY 10465, USA",40.8429545,-73.8249591,Bronx County
81,Brokered by EXP Realty,Multi-family home for sale,790000,6,3,2520.0,"78 Mountainview Ave, Staten Island, NY 10314, USA",40.6105856,-74.1268175,Richmond County
82,Brokered by STROFFOLINO REALTY LLC,Co-op for sale,539000,2,2,1100.0,"9425 Shore Rd #4f, Brooklyn, NY 11209, USA",40.6170731,-74.0383836,Kings County
83,Brokered by Douglas Elliman - 3544 Johnson Ave,Co-op for sale,1295000,4,2,1995.0,"2501 Palisade Ave #2, Bronx, NY 10463, USA",40.8809873,-73.9224337,Bronx County
84,Brokered by Sowae Corp,House for sale,245000,3,1,2184.207862,"2942 Lurting Ave, Bronx, NY 10469, USA",40.8690109,-73.8564445,Bronx County
85,Brokered by Americas Real Estate Advisors,House for sale,400000,7,3,2385.0,"340 E 234th St, Bronx, NY 10470, USA",40.8969146,-73.8654984,Bronx County
86,Brokered by Douglas Elliman - 575 Madison Ave,House for sale,55000000,8,8,12000.0,"25 Riverside Dr, New York, NY 10023, USA",40.782238,-73.9846322,New York County
87,Brokered by Brown Harris Stevens,Co-op for sale,280000,1,1,1000.0,"8015 6th Ave Apt A1, Brooklyn, NY 11209, USA",40.6241766,-74.0216837,Kings County
88,Brokered by Top Choice Realty LLC,House for sale,899000,3,2,1440.0,"40 Adelphi Ave, Staten Island, NY 10309, USA",40.5159004,-74.2314825,Richmond County
89,Built by Toll Brothers,For sale,2280000,2,2,1400.0,"218 W 103rd St, New York, NY 10025, USA",40.7986579,-73.9679035,New York County
90,Brokered by Cross Country Realty,Coming Soon,649000,4,3,2184.207862,"194 Carroll St, Brooklyn, NY 11231, USA",40.6813429,-73.9981509,Kings County
91,Brokered by Charles Rutenberg Realty Inc,Pending,739000,6,4,2184.207862,"38 Dare Ct, Brooklyn, NY 11229, USA",40.5877991,-73.9216187,Kings County
92,Brokered by Douglas Elliman - 187 Seventh Ave,House for sale,3950000,5,2,3528.0,"591 4th St, Brooklyn, NY 11215, USA",40.6680619,-73.9748375,Kings County
93,Brokered by Avenues - Headquarters,Condo for sale,325000,2,1,979.0,"122 E 102nd St #5b, New York, NY 10029, USA",40.7897507,-73.9487257,New York County
94,Brokered by Corcoran Chelsea/Flatiron,Pending,299999,3,1,2184.207862,"215 W 75th St #4d, New York, NY 10023, USA",40.7810583,-73.9808407,New York County
95,Brokered by Sotheby's International Realty - East Side Manhattan Brokerage,Townhouse for sale,2695000,6,5,4720.0,"327 Convent Ave, New York, NY 10031, USA",40.8235127,-73.9467514,New York County
96,Brokered by Compass Realty Central Inc.,House for sale,694000,3,3,1360.0,"364 Armstrong Ave, Staten Island, NY 10308, USA",40.5423126,-74.1555672,Richmond County
97,Brokered by Douglas Elliman - 3544 Johnson Ave,House for sale,688888,4,2,2846.0,"761 S Oak Dr, Bronx, NY 10467, USA",40.8726182,-73.8651768,Bronx County
98,Brokered by Sowae Corp,House for sale,400000,4,2,1980.0,"781 Shepherd Ave, Brooklyn, NY 11208, USA",40.665357,-73.8770867,Kings County
99,Brokered by Sowae Corp,Multi-family home for sale,346000,5,2,2184.207862,"103-12 104th St, Jamaica, NY 11417, USA",40.6837891,-73.8381042,Queens County
100,Brokered by Sowae Corp,House for sale,400000,4,2,1980.0,"781 Shepherd Ave, Brooklyn, NY 11208, USA",40.665357,-73.8770867,Kings County
101,Brokered by Sowae Corp,Multi-family home for sale,346000,5,2,2184.207862,"103-12 104th St, Jamaica, NY 11417, USA",40.6837891,-73.8381042,Queens County
102,Brokered by Sowae Corp,House for sale,265000,3,1,2184.207862,"135-38 224th St, Jamaica, NY 11413, USA",40.67538,-73.7472571,Queens County
103,Brokered by Winzone Realty Inc,House for sale,319000,3,2,1224.0,"57 Neutral Ave, Staten Island, NY 10306, USA",40.5604695,-74.1018925,Richmond County
104,Brokered by Corcoran East Side,Townhouse for sale,24800000,6,8,2184.207862,"45 E 74th St, New York, NY 10021, USA",40.772929,-73.9635462,New York County
105,Brokered by Exp Realty,House for sale,1100000,9,4,3276.0,"421 W 154th St, New York, NY 10032, USA",40.8307115,-73.9424229,New York County
106,Brokered by Sowae Corp,Multi-family home for sale,309000,6,2,2184.207862,"29-18 Brookhaven Ave, Far Rockaway, NY 11691, USA",40.5980695,-73.7632649,Queens County
107,Brokered by Keller Williams Realty Liberty,House for sale,650000,3,2,1522.0,"237-14 93rd Rd, Jamaica, NY 11426, USA",40.723245,-73.7293286,Queens County
108,Brokered by Rise Realty,House for sale,799000,4,2,1975.0,"604 Lamont Ave, Staten Island, NY 10312, USA",40.5387812,-74.193378,Richmond County
109,Brokered by Berkshire Hathaway HomeServices New York Properties - Eastchester,Co-op for sale,259000,3,2,1089.0,"7C Edgewater Park, Bronx, NY 10465, USA",40.8246371,-73.8072061,Bronx County
110,Brokered by DiTommaso Real Estate,House for sale,1195000,4,4,2704.0,"52 Indale Ave, Staten Island, NY 10309, USA",40.5143019,-74.2044734,Richmond County
111,Brokered by Serhant,Condo for sale,17500000,5,6,5499.0,"37 Warren St, New York, NY 10007, USA",40.7143354,-74.0087443,New York County
112,Brokered by Salmon Realty Group,Condo for sale,189000,2,2,966.0,"20 Cliff St #6b, Staten Island, NY 10305, USA",40.6109595,-74.060351,Richmond County
113,Brokered by Midas Realty,Condo for sale,759000,3,2,1200.0,"206-4 Emily Rd #37, Bayside, NY 11360, USA",40.7881763,-73.7877051,Queens County
114,Brokered by ONLY NINE REALTY LLC,House for sale,275000,4,1,2184.207862,"579 E 29th St, Brooklyn, NY 11210, USA",40.6366859,-73.9488175,Kings County
115,Brokered by COMPASS,Condo for sale,499000,1,1,630.0,"157 E 72nd St #8i, New York, NY 10021, USA",40.7702318,-73.9610161,New York County
116,Brokered by Utopia Real Estate,Co-op for sale,69900,2,1,700.0,"61 Edgewater Park, Bronx, NY 10465, USA",40.8224987,-73.8111568,Bronx County
117,Brokered by Rock Realty Inc,Multi-family home for sale,1150000,12,6,5508.0,"32-40 48th St, Long Island City, NY 11103, USA",40.755049,-73.9136386,Queens County
118,"Brokered by Island Advantage Rlty, Llc",Foreclosure,1749900,5,4,3740.0,"517 W 142nd St, New York, NY 10031, USA",40.824015,-73.9502067,New York County
119,Brokered by Charles H. Greenthal Property,Co-op for sale,1399000,3,4,1993.0,"26910 Grand Central Pkwy Apt 21n, Queens, NY 11005, USA",40.7566899,-73.72075,Queens County
120,Brokered by Douglas Elliman - Roslyn,Condo for sale,649000,3,2,1182.0,"163-4 71st Ave #122, Fresh Meadows, NY 11365, USA",40.7302938,-73.8059248,Queens County
121,Brokered by WW Realty Group Inc,House for sale,499000,5,2,1760.0,"2774 Marion Ave, Bronx, NY 10458, USA",40.8663864,-73.8878945,Bronx County
122,Brokered by Julia B. Fee Sotheby's International Realty,Multi-family home for sale,1050000,5,4,3132.0,"2818 Miles Ave, Bronx, NY 10465, USA",40.8176549,-73.8197053,Bronx County
123,Brokered by COMPASS,Townhouse for sale,5000000,10,9,6425.0,"137 W 80th St, New York, NY 10024, USA",40.7832598,-73.976047,New York County
124,Brokered by HOT HOMES REALTY LLC.,Pending,90000,1,1,660.0,"16 Mapleton Ave, Staten Island, NY 10306, USA",40.574451,-74.0929448,Richmond County
125,Brokered by Douglas Elliman - 575 Madison Ave,House for sale,56000000,11,10,24000.0,"9 W 54th St, New York, NY 10019, USA",40.7616,-73.9761913,New York County
126,Brokered by Douglas Elliman - 575 Madison Ave,Condo for sale,500000,4,3,1794.0,"251 W 89th St #6e, New York, NY 10024, USA",40.7905714,-73.9753392,New York County
127,Brokered by Real Estate Property Group LLC,House for sale,350000,2,1,490.0,"750 Patterson Ave, Staten Island, NY 10306, USA",40.5731273,-74.089182,Richmond County
128,Brokered by Corcoran Park Slope,House for sale,1099000,4,2,2184.207862,"204-34 9th Ave, Breezy Point, NY 11697, USA",40.5595612,-73.9147409,Queens County
129,Brokered by RE MAX Boutique Realty,Co-op for sale,90000,1,1,450.0,"1383 Plimpton Ave #1c, Bronx, NY 10452, USA",40.8423705,-73.9234444,Bronx County
130,Brokered by Laffey Real Estate,House for sale,839000,4,2,2184.207862,"158-35 87th St, Jamaica, NY 11414, USA",40.6590909,-73.8451972,Queens County
131,Brokered by CENTURY 21 PROFESSIONAL REALTY,House for sale,659000,8,3,2184.207862,"148-05 111th Ave, Jamaica, NY 11435, USA",40.688533,-73.796529,Queens County
132,Brokered by CENTURY 21 PROFESSIONAL REALTY,House for sale,659000,8,3,2184.207862,"148-05 111th Ave, Jamaica, NY 11435, USA",40.688533,-73.796529,Queens County
133,Brokered by Anthony Napolitano Homes,House for sale,399999,3,1,2184.207862,"178 Beach 24th St, Far Rockaway, NY 11691, USA",40.5950021,-73.7577376,Queens County
134,Brokered by Homefinders of SI Inc.,Condo for sale,250000,3,1,2184.207862,"3105 Ave V #1f, Brooklyn, NY 11229, USA",40.5997081,-73.9344974,Kings County
135,Built by Toll Brothers,For sale,1740000,2,2,1132.0,"218 W 103rd St, New York, NY 10025, USA",40.7986579,-73.9679035,New York County
136,Brokered by Epiphany Realty Llc,House for sale,650000,4,2,2244.0,"115- 115 220th St, Cambria Heights, NY 11411, USA",40.6968706,-73.7390395,Queens County
137,Brokered by Re/Max Edge,House for sale,1165000,3,4,3500.0,"67 Dexter Ave, Staten Island, NY 10309, USA",40.5397292,-74.2155251,Richmond County
138,"Brokered by Homes R Us Realty of NY, Inc.",House for sale,729900,3,2,1150.0,"447 Vernon Ave, Staten Island, NY 10309, USA",40.5302132,-74.1981906,Richmond County
139,Brokered by Winzone Realty Inc,House for sale,1880000,3,4,3150.0,"3758 Bayview Ave, Brooklyn, NY 11224, USA",40.5805262,-74.0061062,Kings County
140,Brokered by Charles H. Greenthal Property,Co-op for sale,449000,2,2,1549.0,"26910 Grand Central Pkwy #22l, Queens, NY 11005, USA",40.7577991,-73.7159564,Queens County
141,Brokered by Keller Williams City Views,House for sale,1175000,3,2,2250.0,"251 B 140 St, Rockaway Park, NY 11694, USA",40.57372,-73.8577786,Queens County
142,"Brokered by Garfield, Leslie J. & Co., Inc.",Townhouse for sale,2750000,3,2,2184.207862,"16 Gay St, New York, NY 10014, USA",40.7336687,-74.000518,New York County
143,Brokered by Hauseit LLC,House for sale,995000,3,2,2184.207862,"159-03 83rd St, Queens, NY 11414, USA",40.657686,-73.8489131,Queens County
144,Brokered by Leven Real Estate - Head Office,Townhouse for sale,15000000,8,6,2184.207862,"126 Pierrepont St, Brooklyn, NY 11201, USA",40.6948972,-73.9925741,Kings County
145,Brokered by RE MAX Edge,House for sale,2800000,4,6,8333.0,"25 Copperleaf Terrace, Staten Island, NY 10304, USA",40.5861193,-74.1075476,Richmond County
146,Brokered by Keller Williams Rlty Landmark,House for sale,2600000,5,4,3024.0,"214-42 27th Ave, Flushing, NY 11360, USA",40.7780417,-73.7739629,Queens County
147,Brokered by Corcoran West Side,Townhouse for sale,3500000,6,6,6000.0,"51 Hamilton Terrace, New York, NY 10031, USA",40.8229141,-73.9460622,New York County
148,Brokered by Corcoran East Side,Co-op for sale,550000,1,1,2184.207862,"609 Columbus Ave #10j, New York, NY 10024, USA",40.7887084,-73.9700091,New York County
149,Brokered by E House Realty & Mgt. Inc.,Pending,769000,3,4,2184.207862,"290 Lake Ave, Staten Island, NY 10303, USA",40.6291962,-74.1518654,Richmond County
150,Brokered by TALK OF THE TOWN REALTY C,House for sale,675000,3,2,2400.0,"2519 Mill Ave, Brooklyn, NY 11234, USA",40.610206,-73.91065,Kings County
151,Brokered by Gateway Arms Realty Corp.,House for sale,879000,4,2,1238.0,"48 Princewood Ave, Staten Island, NY 10309, USA",40.5273247,-74.1983282,Richmond County
152,Brokered by KELLER WILLIAMS REALTY LANDMARK II,House for sale,918888,3,2,2184.207862,"30-36 88th St, Flushing, NY 11369, USA",40.760703,-73.880887,Queens County
153,Brokered by COMPASS,Townhouse for sale,2400000,4,2,1892.0,"396A 9th St, Brooklyn, NY 11215, USA",40.6674938,-73.9832146,Kings County
154,Brokered by Sowae Corp,Multi-family home for sale,425000,5,2,2184.207862,"755 Coster St, Bronx, NY 10474, USA",40.8159966,-73.8881001,Bronx County
155,Brokered by RE MAX Elite,House for sale,998000,4,4,2000.0,"336 Bethel Ave, Staten Island, NY 10307, USA",40.515251,-74.235145,Richmond County
156,Brokered by Coldwell Banker Advantage,House for sale,1195000,4,4,2688.0,"222 Hart Blvd, Staten Island, NY 10301, USA",40.6296431,-74.1005274,Richmond County
157,Brokered by RE MAX Real Estate Professionals,House for sale,1649000,3,2,2052.0,"1217 84th St, Brooklyn, NY 11228, USA",40.6164182,-74.0142443,Kings County
158,"Brokered by Homes R Us Realty of NY, Inc.",House for sale,955000,4,4,2100.0,"82 Vineland Ave, Staten Island, NY 10312, USA",40.551184,-74.1840649,Richmond County
159,Brokered by LJ Realty Team Inc,Multi-family home for sale,949000,6,3,2184.207862,"11737 141st St, Jamaica, NY 11436, USA",40.677393,-73.800094,Queens County
160,Brokered by Keller Williams Rlty Landmark,House for sale,880000,3,2,1743.0,"190-16 33rd Ave, Flushing, NY 11358, USA",40.7668312,-73.7911175,Queens County
161,"Brokered by Tom Crimmins Realty, Ltd.",Contingent,899999,3,2,1784.0,"61 Prescott Ave, Staten Island, NY 10306, USA",40.5788586,-74.11209,Richmond County
162,Brokered by J Milo Real Estate,Condo for sale,198000,1,1,750.0,"11818 Union Tpke Apt 7l, Kew Gardens, NY 11415, USA",40.7127599,-73.83433,Queens County
163,Brokered by Howard Hanna | Rand Realty,House for sale,549000,5,3,496.0,"2808 Wickham Ave, Bronx, NY 10469, USA",40.8679701,-73.836565,Bronx County
164,Brokered by RE MAX Elite,House for sale,1088888,3,4,1320.0,"1568 W 2nd St, Brooklyn, NY 11204, USA",40.6090909,-73.9762651,Kings County
165,Brokered by CAROZZA NICHOLAS M,House for sale,888000,4,2,2686.0,"3079 Giegerich Pl, Bronx, NY 10465, USA",40.8130775,-73.8063357,Bronx County
166,Brokered by All American Realty Management,For sale,65000,3,1,230.0,"45 Madison St #1, New York, NY 10038, USA",40.7120703,-73.9983258,New York County
167,Brokered by Real Broker NY LLC,House for sale,1449999,3,2,2184.207862,"21-89 47th St, Astoria, NY 11105, USA",40.7697773,-73.9014478,Queens County
168,Brokered by Serhant,Townhouse for sale,14900000,5,5,2184.207862,"45 W 70th St, New York, NY 10023, USA",40.7758194,-73.9785263,New York County
169,Brokered by Flateau Realty Corp,Coming Soon,1695000,5,2,2250.0,"871 Putnam Ave, Brooklyn, NY 11221, USA",40.686947,-73.9261885,Kings County
170,Brokered by Sotheby's International Realty - Downtown Manhattan,Townhouse for sale,1970000,4,4,2508.0,"59 Duffield St, Brooklyn, NY 11201, USA",40.6965326,-73.9839654,Kings County
171,Brokered by COMPASS,Co-op for sale,1895000,2,2,2184.207862,"905 Union St Apartment 1, Brooklyn, NY 11215, USA",40.673976,-73.973535,Kings County
172,Brokered by Martino Realty Group,House for sale,649999,3,2,1440.0,"219 Slater Blvd, Staten Island, NY 10305, USA",40.5803331,-74.0885167,Richmond County
173,Brokered by EXP Realty,House for sale,669000,3,2,864.0,"74 Holly St, Staten Island, NY 10304, USA",40.5993523,-74.0953882,Richmond County
174,Brokered by Corcoran Westside Columbus,House for sale,800000,3,2,825.0,"1485 E 53rd St, Brooklyn, NY 11234, USA",40.6222734,-73.924094,Kings County
175,Brokered by COMPASS,Co-op for sale,2375000,1,2,2184.207862,"10 Bleecker St #5b, New York, NY 10012, USA",40.7252187,-73.9929764,New York County
176,Brokered by Corcoran West Side Gallery,For sale,2400000,6,6,6688.0,"726 Nostrand Ave., Brooklyn, NY 11216, USA",40.6738566,-73.9506085,Kings County
177,Brokered by eXp Realty BKNY,House for sale,390000,2,1,586.0,"231 Freeborn St, Staten Island, NY 10306, USA",40.574103,-74.0931668,Richmond County
178,Brokered by COMPASS,Condo for sale,2250000,1,1,2184.207862,"302 W 12th St APT 7A, New York, NY 10014, USA",40.737308,-74.0046666,New York County
179,Brokered by ROCKAWAY PROPERTIES,Condo for sale,725000,2,2,792.0,"627 Wilson Ave #3, Brooklyn, NY 11207, USA",40.6898164,-73.9062474,Kings County
180,Brokered by Sotheby's International Realty - Downtown Manhattan,Co-op for sale,269000,1,1,2184.207862,"4901 Henry Hudson Pkwy W #5f, Bronx, NY 10471, USA",40.8968048,-73.9087471,Bronx County
181,Brokered by COMPASS,Co-op for sale,695000,2,2,2184.207862,"575 Park Ave # 1101, New York, NY 10065, USA",40.7651716,-73.9678719,New York County
182,Brokered by Winzone Realty Inc,House for sale,1300000,3,2,2184.207862,"246 Newman Ave, Bronx, NY 10473, USA",40.8109146,-73.853921,Bronx County
183,Brokered by Ilite Realty Inc,Co-op for sale,459000,3,2,1250.0,"2475 W 16th St #19h, Brooklyn, NY 11214, USA",40.5866482,-73.9845156,Kings County
184,"Brokered by Robert DeFalco Realty, Inc.",House for sale,689999,3,2,1008.0,"596 College Ave, Staten Island, NY 10302, USA",40.621814,-74.1406264,Richmond County
185,Brokered by Winzone Realty Inc,Co-op for sale,425000,3,2,1405.0,"58-03 Calloway St, Corona, NY 11368, USA",40.7381853,-73.8581248,Queens County
186,Brokered by Douglas Elliman - 575 Madison Ave,House for sale,10000000,5,4,6800.0,"166 E 64th St, New York, NY 10065, USA",40.764989,-73.9655331,New York County
187,Brokered by Byson Real Estate Company - Byson Real Estate Company,Co-op for sale,1525000,2,2,2184.207862,"67 Riverside Dr #1c, New York, NY 10024, USA",40.784623,-73.9826586,New York County
188,Brokered by Brp Associates Inc,Multi-family home for sale,1499000,9,6,3519.0,"2619 Shore Pkwy, Brooklyn, NY 11223, USA",40.583514,-73.9738903,Kings County
189,Brokered by COMPASS,Co-op for sale,695000,2,2,2184.207862,"575 Park Ave # 1101, New York, NY 10065, USA",40.7651716,-73.9678719,New York County
190,Brokered by Winzone Realty Inc,House for sale,1300000,3,2,2184.207862,"246 Newman Ave, Bronx, NY 10473, USA",40.8109146,-73.853921,Bronx County
191,Brokered by Sotheby's International Realty - Downtown Manhattan,Co-op for sale,269000,1,1,2184.207862,"4901 Henry Hudson Pkwy W #5f, Bronx, NY 10471, USA",40.8968048,-73.9087471,Bronx County
192,Brokered by Winzone Realty Inc,Co-op for sale,425000,3,2,1405.0,"58-03 Calloway St, Corona, NY 11368, USA",40.7381853,-73.8581248,Queens County
193,Brokered by Brp Associates Inc,Multi-family home for sale,1499000,9,6,3519.0,"2619 Shore Pkwy, Brooklyn, NY 11223, USA",40.583514,-73.9738903,Kings County
194,"Brokered by Robert DeFalco Realty, Inc.",House for sale,519000,3,2,1480.0,"62 Simmons Ln, Staten Island, NY 10314, USA",40.5939378,-74.1843153,Richmond County
195,Brokered by Queens Quality Management,Co-op for sale,358000,2,1,2184.207862,"212- 79 16th Ave #183, Bayside, NY 11360, USA",40.7855174,-73.7797613,Queens County
196,Brokered by COMPASS,Co-op for sale,975000,3,1,2184.207862,"360 W 22nd St #9j, New York, NY 10011, USA",40.7455051,-74.0016003,New York County
197,Brokered by CHRISTIE'S INT.REAL ESTATE GROUP,Townhouse for sale,29200000,12,10,11638.0,"123 E 35th St, New York, NY 10016, USA",40.747472,-73.9796788,New York County
198,Brokered by Pride Estates,Co-op for sale,498000,2,1,975.0,"138 71st St Apt E10, Brooklyn, NY 11209, USA",40.6351164,-74.0311609,Kings County
199,Brokered by Laffey Real Estate,Co-op for sale,385000,1,2,900.0,"1805 215th St Apt 4n, Bayside, NY 11360, USA",40.7839299,-73.77643,Queens County
200,Brokered by Progress Realty Inc.,Multi-family home for sale,999000,6,2,3144.0,"851 Van Nest Ave, Bronx, NY 10462, USA",40.8451067,-73.8601577,Bronx County
201,Brokered by COMPASS,Co-op for sale,399000,1,1,2184.207862,"34-41 85th St #3a, Flushing, NY 11372, USA",40.7531191,-73.8818757,Queens County
202,Brokered by Staten Island Premiere Properties,Contingent,599000,4,4,2800.0,"77 Harbour Ct, Staten Island, NY 10308, USA",40.5387352,-74.1423893,Richmond County
203,"Brokered by Dynasty Real Estate, Inc.",Townhouse for sale,699998,3,2,1548.0,"159 Freedom Ave, Staten Island, NY 10314, USA",40.5953144,-74.1628286,Richmond County
204,Brokered by Daniel Gale Sotheby's International Realty,Co-op for sale,1088000,5,2,2184.207862,"20 Continental Ave #5f, Flushing, NY 11375, USA",40.7186003,-73.8453488,Queens County
205,Brokered by WW Realty Group Inc,House for sale,999000,6,2,1280.0,"3426 Boller Ave, Bronx, NY 10475, USA",40.8808173,-73.8350832,Bronx County
206,Brokered by New York Realty Minimax,Multi-family home for sale,1188888,15,9,2184.207862,"677 Grandview Ave, Queens, NY 11385, USA",40.7075546,-73.9036964,Queens County
207,Brokered by NextHome Residential,Co-op for sale,265000,1,1,700.0,"2345 Bell Blvd Apt 5f, Bayside, NY 11360, USA",40.7824499,-73.7765099,Queens County
208,"Brokered by MAXIMILLION REALTY, INC.",Co-op for sale,288000,1,1,845.0,"3901 Nostrand Ave. #4c, Brooklyn, NY 11235, USA",40.5894827,-73.9395372,Kings County
209,Brokered by COMPASS,Co-op for sale,999995,3,2,1750.0,"205 E 63rd St #11e, New York, NY 10065, USA",40.7640501,-73.964336,New York County
210,Brokered by Corcoran East Side,Co-op for sale,1495000,2,2,1350.0,"200 E 74th St #6b, New York, NY 10021, USA",40.7708195,-73.9595235,New York County
211,Brokered by Corcoran Park Avenue South,Co-op for sale,925000,1,1,1000.0,"235 E 73rd St #4b, New York, NY 10021, USA",40.7699425,-73.9583558,New York County
212,Brokered by Realty Connect USA LLC,Co-op for sale,349000,2,1,2184.207862,"84-70 129th St #5u, Jamaica, NY 11415, USA",40.7050355,-73.8241699,Queens County
213,Brokered by AI Realty Brokerage LLC,Condo for sale,2000000,4,4,3000.0,"444 E 57th St #2d, New York, NY 10022, USA",40.7573479,-73.9614914,New York County
214,Brokered by Century 21 Realty First,Condo for sale,839000,3,2,1376.0,"8895 26th Ave #5a, Brooklyn, NY 11214, USA",40.5905451,-73.9910402,Kings County
215,Brokered by Platinum Properties of Long Island,Co-op for sale,329000,1,1,820.0,"11139 76th Rd Apt E6, Forest Hills, NY 11375, USA",40.7157399,-73.83672,Queens County
216,Brokered by Keller Williams Hudson Valley,Multi-family home for sale,899000,6,3,3683.0,"948 E 217th St, Bronx, NY 10469, USA",40.8796143,-73.856153,Bronx County
217,Brokered by Citadel Circle Realty,House for sale,615000,3,2,2184.207862,"534 Powell St, Brooklyn, NY 11212, USA",40.6610456,-73.9019953,Kings County
218,Brokered by Sotheby's International Realty - Downtown Manhattan,Condo for sale,800000,2,2,1257.0,"309 E 108th St #5f, New York, NY 10029, USA",40.7917785,-73.9406204,New York County
219,Brokered by Coldwell Banker Advantage,Condo for sale,430000,2,2,1248.0,"527 Willow Rd E #2, Staten Island, NY 10314, USA",40.6123868,-74.1511288,Richmond County
220,Brokered by Jessica Viola,Contingent,499000,3,2,1288.0,"625 Goethals Rd N, Staten Island, NY 10314, USA",40.6166867,-74.1576647,Richmond County
221,Brokered by Keller Williams Realty Liberty,Co-op for sale,439500,3,2,1400.0,"83-80 118th St #3a, Queens, NY 11415, USA",40.7047878,-73.8344551,Queens County
222,Brokered by Prime Properties Long Island,Co-op for sale,299000,1,1,2184.207862,"118-18 Union Tpke #17g, Kew Gardens, NY 11415, USA",40.7123992,-73.8339305,Queens County
223,Brokered by RE MAX Distinguished Homes & Properties,Condo for sale,200000,1,1,613.0,"1700 Metropolitan Ave, Bronx, NY 10462, USA",40.840459,-73.8542045,Bronx County
224,Brokered by Oxford Property Group,Co-op for sale,425000,3,1,2184.207862,"504 W 135th St #1b, New York, NY 10031, USA",40.8189893,-73.953108,New York County
225,Brokered by BESMATCH REAL ESTATE,Co-op for sale,69000,1,1,850.0,"1185 Anderson Ave #2e, Bronx, NY 10452, USA",40.8366623,-73.9239586,Bronx County
226,Brokered by Corcoran West Side Gallery,Condo for sale,1995000,3,2,1546.0,"272 W 107th St #8d, New York, NY 10025, USA",40.8018548,-73.9672877,New York County
227,Brokered by COMPASS,Co-op for sale,230000,1,1,620.0,"255 W 108th St #1b, New York, NY 10025, USA",40.8028416,-73.9670229,New York County
228,Brokered by Crifasi Real Estate Inc,Co-op for sale,220000,1,1,590.0,"82-35 134th St #2d, Jamaica, NY 11435, USA",40.7130136,-73.8230375,Queens County
229,Brokered by E Realty International Corp,Co-op for sale,198000,3,1,2184.207862,"42-40 Bowne St #6f, Flushing, NY 11355, USA",40.756144,-73.8213672,Queens County
230,Brokered by Brown Harris Stevens - 445 Park Avenue,Co-op for sale,1495000,1,2,2184.207862,"48 Gramercy Park N #1b, New York, NY 10010, USA",40.7382884,-73.9851838,New York County
231,Brokered by Corcoran West Side,Co-op for sale,475000,1,1,615.0,"520 E 90th St #1b, New York, NY 10128, USA",40.7779975,-73.9445342,New York County
232,Brokered by Rad Marketing Corp,Co-op for sale,199900,2,1,2184.207862,"234-4 131st Ave #2, Rosedale, NY 11422, USA",40.6779049,-73.733881,Queens County
233,Brokered by Joanne Costa Realty,House for sale,1150000,2,2,1444.0,"91 Flagg Ct, Staten Island, NY 10304, USA",40.5882505,-74.1087291,Richmond County
234,Brokered by Corcoran Park Slope,House for sale,1575000,3,2,2184.207862,"530 4th St, Brooklyn, NY 11215, USA",40.6683947,-73.9762195,Kings County
235,Brokered by KELLER WILLIAMS REALTY LANDMARK II,Co-op for sale,229000,1,1,2184.207862,"33-05 92nd St #1b, Jackson Heights, NY 11372, USA",40.7562792,-73.8758052,Queens County
236,Brokered by Corcoran SoHo,For sale,2700000,8,4,2184.207862,"122 Willoughby Ave, Brooklyn, NY 11205, USA",40.6914843,-73.9676428,Kings County
237,Brokered by C J Robin's Real Estate,Condo for sale,320000,2,2,936.0,"1860 Story Ave # 36-B, Bronx, NY 10473, USA",40.8236857,-73.8611313,Bronx County
238,Brokered by RE MAX Edge,Co-op for sale,295000,2,1,700.0,"1275 E 5th St #6a, Brooklyn, NY 11230, USA",40.6196386,-73.9707307,Kings County
239,Brokered by Spire Group Inc.- Main Office,House for sale,550000,3,2,2184.207862,"4211 Snyder Ave, Brooklyn, NY 11203, USA",40.6498755,-73.9375091,Kings County
240,Brokered by Serhant,Condo for sale,285000,2,1,1000.0,"1439 Metropolitan Ave #6a, Bronx, NY 10462, USA",40.8362269,-73.8612346,Bronx County
241,Brokered by Voro Llc,Co-op for sale,328000,1,1,800.0,"8330 Vietor Ave Apartment 414, Flushing, NY 11373, USA",40.743059,-73.880983,Queens County
242,Brokered by Skylux Realty,Multi-family home for sale,1388000,4,3,2184.207862,"25-02 169th St, Flushing, NY 11358, USA",40.774158,-73.7957477,Queens County
243,Brokered by EXP Realty,Multi-family home for sale,3000000,10,10,2184.207862,"120 Pierrepont St, Brooklyn, NY 11201, USA",40.6949321,-73.9928542,Kings County
244,Brokered by New York Realty Minimax,Multi-family home for sale,2198888,7,6,2184.207862,"662 Seneca Ave, Ridgewood, NY 11385, USA",40.7032697,-73.9088462,Queens County
245,Brokered by Howard Hanna | Rand Realty,Multi-family home for sale,650000,6,2,2310.0,"936 Taylor Ave, Bronx, NY 10473, USA",40.8244358,-73.8633737,Bronx County
246,Brokered by Corcoran Park Avenue South,Condo for sale,1100000,1,2,890.0,"247 W 46th St APT 1506, New York, NY 10036, USA",40.7598542,-73.9874427,New York County
247,Brokered by Gosen Properties Inc,Townhouse for sale,2649000,5,4,4050.0,"282 Macon St, Brooklyn, NY 11216, USA",40.6820924,-73.9393924,Kings County
248,Brokered by Corcoran Park Slope,Co-op for sale,849000,2,1,800.0,"299 13th St #3d, Brooklyn, NY 11215, USA",40.6662599,-73.9870141,Kings County
249,Brokered by Sotheby's International Realty - East Side Manhattan Brokerage,For sale,6500000,2,2,2184.207862,"995 5th Ave #11b, New York, NY 10028, USA",40.778004,-73.962547,New York County
250,Brokered by HOULIHAN LAWRENCE - LaGrangeville,Co-op for sale,560000,3,1,550.0,"165 West End Ave #16c, New York, NY 10023, USA",40.777244,-73.9868738,New York County
251,Brokered by Corcoran Park Avenue South,Condo for sale,1100000,1,2,890.0,"247 W 46th St APT 1506, New York, NY 10036, USA",40.7598542,-73.9874427,New York County
252,Brokered by Gosen Properties Inc,Townhouse for sale,2649000,5,4,4050.0,"282 Macon St, Brooklyn, NY 11216, USA",40.6820924,-73.9393924,Kings County
253,Brokered by Corcoran Park Slope,Co-op for sale,849000,2,1,800.0,"299 13th St #3d, Brooklyn, NY 11215, USA",40.6662599,-73.9870141,Kings County
254,Brokered by RE MAX Elite,Co-op for sale,418888,2,1,900.0,"946 59th St #4b, Brooklyn, NY 11219, USA",40.6339124,-74.0058434,Kings County
255,Brokered by RE MAX Real Estate Professionals,Multi-family home for sale,2600000,3,3,3978.0,"99 Bay 11th St, Brooklyn, NY 11228, USA",40.6083914,-74.0100209,Kings County
256,Brokered by Velez Realty Corp,Multi-family home for sale,899000,8,2,2160.0,"3214 Seymour Ave, Bronx, NY 10469, USA",40.8728082,-73.8469489,Bronx County
257,Brokered by CENTURY 21 Dawn's Gold Realty,Multi-family home for sale,979000,8,3,2860.0,"309 E 96th St, Brooklyn, NY 11212, USA",40.6597134,-73.9195979,Kings County
258,Brokered by Sbny Re,Co-op for sale,199000,1,1,2184.207862,"6738 108th St Apt D5, Forest Hills, NY 11375, USA",40.7282899,-73.8472,Queens County
259,Brokered by Sotheby's International Realty - East Side Manhattan Brokerage,For sale,815000,3,1,2184.207862,"310 E 46th St #6d, New York, NY 10017, USA",40.751918,-73.9698335,New York County
260,Brokered by Signature Premier Properties,Condo for sale,1025000,1,1,800.0,"460 E 79th St #9f, New York, NY 10075, USA",40.7712538,-73.950858,New York County
261,Brokered by COMPASS,Condo for sale,1375000,1,2,920.0,"188 E 64th St APT 802, New York, NY 10065, USA",40.7645034,-73.9648503,New York County
262,Brokered by Keller Williams NYC,Condo for sale,875000,3,2,1437.0,"105 Bennett Ave #21a, New York, NY 10033, USA",40.8539526,-73.9345678,New York County
263,"Brokered by MAXIMILLION REALTY, INC.",Multi-family home for sale,1350000,6,3,3000.0,"2535 E 24th St, Brooklyn, NY 11235, USA",40.5902653,-73.9455056,Kings County
264,Brokered by Corcoran Williamsburg Bedford,For sale,989000,7,3,2184.207862,"1408 Remsen Ave, Brooklyn, NY 11236, USA",40.6360957,-73.9018295,Kings County
265,Brokered by Scott Dobrin Realty,Multi-family home for sale,815156,4,4,2945.0,"156 Davis Ave, Staten Island, NY 10310, USA",40.6402659,-74.110402,Richmond County
266,Brokered by Momentum Real Estate Llc,Multi-family home for sale,1949000,3,5,2560.0,"11 Brighton 10th Path, Brooklyn, NY 11235, USA",40.5813374,-73.9589282,Kings County
267,Brokered by Redfin Real Estate,Multi-family home for sale,669000,5,2,1893.0,"418 Beach 37th St, Far Rockaway, NY 11691, USA",40.5967151,-73.7696424,Queens County
268,Brokered by Fillmore Real Estate,Multi-family home for sale,900500,4,2,2184.207862,"10716 Avenue J, Brooklyn, NY 11236, USA",40.6468871,-73.8907758,Kings County
269,"Brokered by CLAS - Classic Marketing, LLC",Co-op for sale,1465000,3,3,2184.207862,"215 E 73rd St #4a, New York, NY 10021, USA",40.7701914,-73.9590118,New York County
270,Brokered by Sotheby's International Realty - East Side Manhattan Brokerage,For sale,899000,3,1,1100.0,"529 W 42nd St #2g, New York, NY 10036, USA",40.7604194,-73.9968086,New York County
271,Brokered by COMPASS,Condo for sale,1100000,1,1,726.0,"88 Greenwich St APT 2307, New York, NY 10006, USA",40.7078844,-74.0140879,New York County
272,"Brokered by Century 21 Amiable Realty Group II, Inc.",Multi-family home for sale,1199000,6,5,2184.207862,"151-42 82nd St, Jamaica, NY 11414, USA",40.6662035,-73.8525027,Queens County
273,Brokered by Corcoran Chelsea/Flatiron,For sale,325000,2,1,2184.207862,"12 W 107th St #2b, New York, NY 10025, USA",40.7989043,-73.9604812,New York County
274,Brokered by New York Realty Minimax,Multi-family home for sale,1230000,4,3,2184.207862,"74-06 64th Ln, Flushing, NY 11385, USA",40.700194,-73.8907488,Queens County
275,Brokered by Brown Harris Stevens - 445 Park Avenue,Co-op for sale,3950000,3,3,2184.207862,"2 Sutton Pl s, New York, NY 10022, USA",40.7573949,-73.9606545,New York County
276,Brokered by ANNE LOPA REAL ESTATE,House for sale,214748364,7,6,10000.0,"6659 Amboy Rd, Staten Island, NY 10309, USA",40.5184841,-74.2244185,Richmond County
277,Brokered by KELLER WILLIAMS REALTY LANDMARK II,Multi-family home for sale,1350000,10,5,3383.0,"188 Richmond St, Brooklyn, NY 11208, USA",40.6828535,-73.8769965,Kings County
278,Brokered by OneSpace Realty Group LLC,House for sale,799000,5,3,1800.0,"1124 E 51st St, Brooklyn, NY 11234, USA",40.6336127,-73.9276041,Kings County
279,Brokered by Keller Williams Realty Greater Nassau,House for sale,1599000,5,3,5600.0,"1233 Todt Hill Rd, Staten Island, NY 10304, USA",40.5813757,-74.1131912,Richmond County
280,"Brokered by Robert DeFalco Realty, Inc.",House for sale,1299900,4,4,2755.0,"346 George St, Staten Island, NY 10307, USA",40.5065922,-74.2393503,Richmond County
281,Brokered by Corcoran Brooklyn Heights,Co-op for sale,370000,1,1,2184.207862,"100 Remsen St #3f, Brooklyn, NY 11201, USA",40.6939582,-73.9943695,Kings County
282,Brokered by Living NY - Main Office,For sale,322500,3,1,2184.207862,"635 W 170th St #2c, New York, NY 10032, USA",40.8434062,-73.9407947,New York County
283,Brokered by Douglas Elliman - 575 Madison Ave,Co-op for sale,3649000,3,2,2184.207862,"11 W 30th St #11f, New York, NY 10001, USA",40.7464683,-73.9872992,New York County
284,"Brokered by Empire City Properties, LLC",Multi-family home for sale,860000,5,3,2324.0,"3743 Neptune Ave, Brooklyn, NY 11224, USA",40.5768936,-74.0048793,Kings County
285,Brokered by Re/Max Edge,House for sale,765000,3,4,2205.0,"80 Longview Rd, Staten Island, NY 10304, USA",40.611142,-74.0905357,Richmond County
286,Brokered by Douglas Elliman - 187 Seventh Ave,Co-op for sale,259000,1,1,750.0,"3500 Snyder Ave #5n, Brooklyn, NY 11203, USA",40.6491203,-73.9440658,Kings County
287,Brokered by The Turner Realty Group Inc,Multi-family home for sale,1500000,8,3,3135.0,"1601 Nostrand Ave., Brooklyn, NY 11226, USA",40.6471477,-73.9489423,Kings County
288,Brokered by Brown Harris Stevens,Condo for sale,850000,2,2,1005.0,"340 Cabrini Blvd APT 501, New York, NY 10040, USA",40.856444,-73.9377616,New York County
289,Brokered by Living NY - Main Office,For sale,249400,2,1,2184.207862,"635 W 170th St #4f, New York, NY 10032, USA",40.8434062,-73.9407947,New York County
290,Brokered by 5 Boro Realty Corp,Condo for sale,99000,1,1,2184.207862,"1368 E 92nd St #300, Brooklyn, NY 11236, USA",40.6372545,-73.9002674,Kings County
291,Brokered by Douglas Elliman - 1410 Cortelyou Rd,Co-op for sale,535000,1,1,750.0,"192 E 8th St #1c, Brooklyn, NY 11218, USA",40.6453011,-73.9723049,Kings County
292,Brokered by Coldwell Banker Advantage,Multi-family home for sale,849998,4,2,2342.0,"358 Lamoka Ave, Staten Island, NY 10312, USA",40.5487767,-74.1629254,Richmond County
293,Brokered by Sotheby's International Realty - East Side Manhattan Brokerage,For sale,1100000,2,2,2184.207862,"2235 Frederick Douglass Blvd #7k, New York, NY 10027, USA",40.807426,-73.9535703,New York County
294,Brokered by SkyLimit Realty Group,Multi-family home for sale,998000,5,3,1574.0,"60-17 59th Ave, Flushing, NY 11378, USA",40.7190856,-73.9060914,Queens County
295,Brokered by CENTURY 21 Achievers,Multi-family home for sale,1500000,3,2,2184.207862,"3115 Glenwood Rd, Brooklyn, NY 11210, USA",40.634316,-73.9462919,Kings County
296,Brokered by New Concept Sheiks Realty Inc.,Multi-family home for sale,875000,6,3,2860.0,"1779 Edenwald Ave, Bronx, NY 10466, USA",40.8920958,-73.8487361,Bronx County
297,Brokered by COMPASS,Condo for sale,2350000,1,2,1144.0,"456 W 19th St, New York, NY 10011, USA",40.7449256,-74.0057175,New York County
298,Brokered by BESMATCH REAL ESTATE,Multi-family home for sale,850000,5,2,1908.0,"4346 Edson Ave, Bronx, NY 10466, USA",40.8979269,-73.8463057,Bronx County
299,Brokered by Douglas Elliman - 575 Madison Ave,Co-op for sale,1200000,3,2,2184.207862,"955 Lexington Ave #5c, New York, NY 10021, USA",40.7687538,-73.9631311,New York County
300,Brokered by Serhant,Condo for sale,12000000,4,4,3809.0,"67 Franklin St, New York, NY 10013, USA",40.7174584,-74.0038831,New York County
301,Brokered by CHRISTIE'S INT.REAL ESTATE GROUP,Co-op for sale,1300000,2,2,2184.207862,"269 W 87th St #6c, New York, NY 10024, USA",40.7895034,-73.9769713,New York County
302,"Brokered by Nest Seekers International, Westside",For sale,799000,3,1,585.0,"240 Riverside Blvd #3b, New York, NY 10023, USA",40.7804721,-73.9871434,New York County
303,Brokered by Steven Corcoran Real Estate LLC - Steven Corcoran Real Estate TudorCity.com,Co-op for sale,339000,3,1,250.0,"314 E 41st St Apt 303b, New York, NY 10017, USA",40.7488879,-73.9723947,New York County
304,Brokered by RE MAX Distinguished Homes & Properties,Multi-family home for sale,875000,7,5,2680.0,"1126 Ward Ave, Bronx, NY 10472, USA",40.8270095,-73.8766285,Bronx County
305,Brokered by Keller Williams Realty NYC Grp,Multi-family home for sale,799000,7,2,2296.0,"1341 Fteley Ave, Bronx, NY 10472, USA",40.8333931,-73.8727914,Bronx County
306,Brokered by Keller Williams Realty NYC Grp,Multi-family home for sale,799000,7,2,2296.0,"1341 Fteley Ave, Bronx, NY 10472, USA",40.8333931,-73.8727914,Bronx County
307,Brokered by Sowae Corp,House for sale,285000,2,1,1380.0,"102-15 215th St, Jamaica, NY 11429, USA",40.7128326,-73.7435779,Queens County
308,Brokered by Century 21 AA Realty,Multi-family home for sale,2499000,5,4,1340.0,"181 Park Ave, Brooklyn, NY 11205, USA",40.6962962,-73.9720502,Kings County
309,Brokered by Douglas Elliman - 3544 Johnson Ave,Townhouse for sale,795000,4,2,1440.0,"42 Adrian Ave, Bronx, NY 10463, USA",40.8767388,-73.911189,New York County
310,Brokered by Douglas Elliman - 575 Madison Ave,Co-op for sale,1799995,2,2,2184.207862,"207 E 74th St #8b, New York, NY 10021, USA",40.7708932,-73.9586258,New York County
311,"Brokered by Nest Seekers International, Internationa",For sale,5999000,3,3,3000.0,"220 Riverside Blvd #24b, New York, NY 10069, USA",40.7798567,-73.9873973,New York County
312,Brokered by Douglas Elliman - Franklin Square,Pending,668000,3,2,1606.0,"88-08 Gettysburg St, Jamaica, NY 11426, USA",40.7299787,-73.7310756,Queens County
313,Brokered by Hand In Hand Real Estate,House for sale,699900,3,2,1470.0,"102 Lamberts Ln, Staten Island, NY 10314, USA",40.6153952,-74.1610855,Richmond County
314,Brokered by Brownstone Real Estate LLC - Carroll Gardens,Townhouse for sale,5295000,4,4,4600.0,"75 2nd Pl, Brooklyn, NY 11231, USA",40.6800067,-73.9982111,Kings County
315,Brokered by Extell Marketing Group LLC,Condo for sale,2265000,2,2,1123.0,"252 South St #26, New York, NY 10002, USA",40.710456,-73.991235,New York County
316,Brokered by EXP Realty,Co-op for sale,459000,2,1,950.0,"14205 Roosevelt Ave Apt 435, Flushing, NY 11354, USA",40.7607942,-73.8258766,Queens County
317,Brokered by True North Realty Luxury Homes,House for sale,879000,4,2,2184.207862,"87-45 253rd St, Jamaica, NY 11426, USA",40.7294367,-73.7125595,Queens County
318,Brokered by New York Realty Minimax,Multi-family home for sale,869888,4,3,2184.207862,"86-27 125th St, Richmond Hill, NY 11418, USA",40.7019014,-73.8256776,Queens County
319,Brokered by Keller Williams Rlty Landmark,House for sale,799888,3,2,2184.207862,"62-24 65th St, Flushing, NY 11379, USA",40.7138975,-73.8970229,Queens County
320,Brokered by Berkshire Hathaway HomeServices Cangiano Estates,House for sale,749000,4,1,1040.0,"29 Canterbury Ave, Staten Island, NY 10314, USA",40.6165347,-74.1507186,Richmond County
321,NoBroker,House for sale,499000,2,3,2184.207862,"119-44 193rd St, Jamaica, NY 11412, USA",40.6886004,-73.7568067,Queens County
322,Brokered by Douglas Elliman - 575 Madison Ave,House for sale,1295000,3,4,2193.0,"269 W 87th St #7b, New York, NY 10024, USA",40.7895034,-73.9769713,New York County
323,Brokered by J. Milo Real Estate Ltd,Pending,879900,3,2,2242.0,"640 Sheldon Ave, Staten Island, NY 10312, USA",40.5409077,-74.1964937,Richmond County
324,Brokered by Corcoran SoHo,Co-op for sale,400000,2,2,1150.0,"8 Magnolia Pl, Bronx, NY 10465, USA",40.8131429,-73.808397,Bronx County
325,Brokered by Corcoran Bedford Stuyvesant,Condo for sale,289000,1,1,666.0,"1065 Vermont St #4g, Brooklyn, NY 11207, USA",40.6541622,-73.8846778,Kings County
326,Brokered by COMPASS,Condo for sale,699000,1,1,616.0,"435 Tompkins Ave #305, Brooklyn, NY 11216, USA",40.6826476,-73.9434923,Kings County
327,Brokered by Liberty Chateau Realty Inc,Foreclosure,479000,6,2,3100.0,"16 Renfrew Pl, Staten Island, NY 10303, USA",40.6268305,-74.1471405,Richmond County
328,Brokered by COMPASS,Condo for sale,1355000,2,2,1002.0,"435 Tompkins Ave #703, Brooklyn, NY 11216, USA",40.6826476,-73.9434923,Kings County
329,Brokered by COMPASS,Condo for sale,1225000,2,2,882.0,"435 Tompkins Ave #602, Brooklyn, NY 11216, USA",40.6826476,-73.9434923,Kings County
330,"Brokered by Island Advantage Rlty, Llc",Foreclosure,9999000,4,6,4531.0,"960 Park Ave #3w, New York, NY 10028, USA",40.7779497,-73.959448,New York County
331,"Brokered by Bizzarro Agency, LLC",Co-op for sale,105000,3,1,656.0,"2191 Bolton St #5e, Bronx, NY 10462, USA",40.8560699,-73.8688751,Bronx County
332,Brokered by Keller Williams Realty NYC Grp,Multi-family home for sale,799000,5,3,2400.0,"232 Throgs Neck Blvd, Bronx, NY 10465, USA",40.8181836,-73.812739,Bronx County
333,Brokered by NY Home Ventures,Co-op for sale,202000,2,1,1453.0,"18-70 211th St #2a, Bayside, NY 11360, USA",40.7802813,-73.7818912,Queens County
334,Brokered by Coldwell Banker Advantage,Contingent,720000,3,2,1430.0,"190 Chestnut Ave, Staten Island, NY 10305, USA",40.6149561,-74.0745548,Richmond County
335,Brokered by Apollo Point Realty LLC,House for sale,600000,5,2,2184.207862,"392 E 7th St, Brooklyn, NY 11218, USA",40.6422956,-73.972787,Kings County
336,Brokered by Douglas Elliman - 237 Smith St,Co-op for sale,599000,3,1,1200.0,"7901 4th Ave Apt D7, Brooklyn, NY 11209, USA",40.6279352,-74.0260154,Kings County
337,Brokered by Berkshire Hathaway HomeServices Cangiano Estates,Condo for sale,235000,2,1,860.0,"162 Arlo Rd # A, Staten Island, NY 10301, USA",40.6192765,-74.09515,Richmond County
338,Brokered by Douglas Elliman - Franklin Square,Co-op for sale,319000,3,1,960.0,"58- 42 251st St, Queens, NY 11362, USA",40.7598591,-73.7290086,Queens County
339,Brokered by Keller Williams Rlty Landmark,Multi-family home for sale,950000,12,6,2184.207862,"18-29 George St, Flushing, NY 11385, USA",40.7000145,-73.9010076,Queens County
340,Brokered by Carollo Real Estate Inc,Multi-family home for sale,1088888,4,2,2184.207862,"15-03 201st St, Bayside, NY 11360, USA",40.7860789,-73.7928524,Queens County
341,Brokered by Better Homes and Gardens Real Estate Safari Realty,House for sale,1250000,4,4,3300.0,"24 Gianna Ct, Staten Island, NY 10306, USA",40.5675492,-74.140764,Richmond County
342,Brokered by Claire Properties,House for sale,774888,3,2,960.0,"417 Genesee Ave, Staten Island, NY 10312, USA",40.5525576,-74.1709014,Richmond County
343,"Brokered by Robert E. Hill, Inc.",Co-op for sale,105509,1,1,650.0,"60 Knolls Crescent #8f, Bronx, NY 10463, USA",40.879078,-73.9175196,Bronx County
344,Brokered by Douglas Elliman  -111 Fifth Ave,Multi-family home for sale,995000,5,2,2184.207862,"544 Madison St, Brooklyn, NY 11221, USA",40.6862289,-73.9364224,Kings County
345,Brokered by Douglas Elliman  -111 Fifth Ave,Multi-family home for sale,995000,5,2,2184.207862,"544 Madison St, Brooklyn, NY 11221, USA",40.6862289,-73.9364224,Kings County
346,Brokered by CENTURY 21 Kafcos Realty,House for sale,769000,4,2,1728.0,"4322 E Tremont Ave, Bronx, NY 10465, USA",40.8152029,-73.8154969,Bronx County
347,Brokered by Ooakb&F Inc,Co-op for sale,395995,2,1,1100.0,"5601 Riverdale Ave #2b, Bronx, NY 10471, USA",40.9048823,-73.9051113,Bronx County
348,Brokered by Peter Ashe Real Estate- Peter Ashe Real Estate,For sale,975000,1,2,900.0,"231-235 E 55th St # 45a, New York, NY 10022, USA",40.7585686,-73.9669708,New York County
349,Brokered by Morris Park Realty Group,House for sale,499999,2,1,1744.0,"616 City Island Ave, Bronx, NY 10464, USA",40.8549429,-73.7908303,Bronx County
350,Brokered by Douglas Elliman - 1995 Broadway,Co-op for sale,1649000,2,2,2184.207862,"165 West End Ave #7n, New York, NY 10023, USA",40.777244,-73.9868738,New York County
351,Brokered by EXP Realty,Co-op for sale,365000,2,1,2184.207862,"83-40 Austin St #3e, Jamaica, NY 11415, USA",40.7083799,-73.8290102,Queens County
352,Brokered by Corcoran SoHo,Pending,748999,3,2,1620.0,"122 North Dr, Staten Island, NY 10305, USA",40.606691,-74.0724094,Richmond County
353,Brokered by Keller Williams Legendary,House for sale,635000,3,2,2184.207862,"118-14 201 Pl, St. Albans, NY 11412, USA",40.6933533,-73.7503369,Queens County
354,Brokered by Corcoran SoHo,Co-op for sale,149000,3,1,400.0,"87 St Marks Pl #4c, New York, NY 10009, USA",40.7276196,-73.9848906,New York County
355,Brokered by Capri Jet Realty Corp,House for sale,1099000,5,2,1760.0,"84-11 165th Ave, Jamaica, NY 11414, USA",40.6481943,-73.8452374,Queens County
356,Brokered by Prestige Homes Ny Inc,Multi-family home for sale,1529999,6,5,2400.0,"116-25 134th St, Jamaica, NY 11420, USA",40.6780476,-73.8056181,Queens County
357,Brokered by Gateway Arms Realty Corp.,House for sale,675000,3,1,1404.0,"44 Hunter Pl, Staten Island, NY 10301, USA",40.6333513,-74.1021333,Richmond County
358,"Brokered by Century 21 Amiable Realty Group II, Inc.",House for sale,2650000,6,6,2184.207862,"87-07 158th Ave, Jamaica, NY 11414, USA",40.660323,-73.8455929,Queens County
359,Brokered by Sowae Corp,House for sale,420000,3,1,2184.207862,"90-07 107th Ave, Queens, NY 11417, USA",40.6784764,-73.8476859,Queens County
360,Brokered by Liberty Chateau Realty Inc,Townhouse for sale,559900,3,2,980.0,"18 Navigator Ct, Staten Island, NY 10309, USA",40.5132339,-74.1959753,Richmond County
361,Brokered by Coldwell Banker American Homes,House for sale,549000,3,1,2184.207862,"122-4 115th Ave, South Ozone Park, NY 11420, USA",40.6776809,-73.8166457,Queens County
362,Brokered by E House Realty & Mgt. Inc.,Land for sale,999000,3,2,950.0,"136-17 Carlton Pl, Flushing, NY 11354, USA",40.7644631,-73.8297531,Queens County
363,Brokered by Brooklyn Bound Realty Corp,House for sale,2295000,7,4,3632.0,"235 W 138th St, New York, NY 10030, USA",40.8180374,-73.9436858,New York County
364,Brokered by NextHome Prestige,House for sale,1150000,3,4,3000.0,"335 Preston Ave, Staten Island, NY 10312, USA",40.5343966,-74.1582874,Richmond County
365,NoBroker,Co-op for sale,235000,3,2,1400.0,"14350 Hoover Ave Apt 307, Jamaica, NY 11435, USA",40.7142299,-73.8152,Queens County
366,Brokered by Sowae Corp,House for sale,215000,4,2,2000.0,"408 Van Siclen Ave, Brooklyn, NY 11207, USA",40.6694978,-73.8897534,Kings County
367,Brokered by BKNY TROY AVENUE REALTY CORP,House for sale,299000,5,2,2184.207862,"219 Beach 44th St, Far Rockaway, NY 11691, USA",40.593404,-73.775651,Queens County
368,Brokered by Douglas Elliman - 1995 Broadway,Condo for sale,7495000,4,4,2888.0,"378 West End Ave #4a, New York, NY 10024, USA",40.7833319,-73.9815796,New York County
369,Brokered by Keller Williams NYC,Townhouse for sale,2850000,4,4,4080.0,"30-53 35th St, Long Island City, NY 11103, USA",40.7639241,-73.9190583,Queens County
370,Brokered by Berkshire Hathaway HomeServices New York Properties - Eastchester,Co-op for sale,215000,2,2,747.0,"127 D Edgewater Park, Bronx, NY 10465, USA",40.8233271,-73.8110122,Bronx County
371,Brokered by Sowae Corp,House for sale,275000,2,1,1104.0,"3009 Coddington Ave, Bronx, NY 10461, USA",40.8409818,-73.8292936,Bronx County
372,Brokered by Momentum Real Estate LLC,Multi-family home for sale,898000,6,3,2100.0,"15 Spratt Ave, Staten Island, NY 10306, USA",40.5586967,-74.1351001,Richmond County
373,Brokered by Signature Premier Properties,Co-op for sale,275000,2,1,900.0,"1910 Pelham Pkwy S #2a, Bronx, NY 10461, USA",40.8554764,-73.8287193,Bronx County
374,Brokered by Drop Key Realty LLC,House for sale,599000,4,2,1682.0,"114-36 Sutter Ave, Jamaica, NY 11420, USA",40.6747343,-73.8239749,Queens County
375,Brokered by Gateway Arms Realty Corp.,Condo for sale,189000,1,1,730.0,"20 Cliff St #5b, Staten Island, NY 10305, USA",40.6109595,-74.060351,Richmond County
376,Brokered by Blooming Realty,Multi-family home for sale,678990,3,3,1575.0,"155 Wellbrook Ave, Staten Island, NY 10314, USA",40.6012318,-74.1300175,Richmond County
377,Brokered by SUPERIOR REALTY SERVICE,House for sale,800000,3,2,1824.0,"2660 Mill Ave, Brooklyn, NY 11234, USA",40.608799,-73.9128174,Kings County
378,Brokered by Taranto Realty,Condo for sale,549000,3,2,1092.0,"4 Jamie Ct, Staten Island, NY 10314, USA",40.6221107,-74.1499982,Richmond County
379,Brokered by Compass Realty Central Inc.,House for sale,849000,3,2,2000.0,"329 Wainwright Ave, Staten Island, NY 10312, USA",40.5528489,-74.1699382,Richmond County
380,Brokered by Eden7 Realty Inc,House for sale,759999,4,2,2184.207862,"91-18 173rd St, Jamaica, NY 11432, USA",40.7083753,-73.787158,Queens County
381,Brokered by Martino Realty Group,Contingent,489000,2,1,978.0,"615 Correll Ave, Staten Island, NY 10309, USA",40.546573,-74.213449,Richmond County
382,Brokered by RE MAX Real Estate Professionals,Multi-family home for sale,799900,5,2,1750.0,"2339 Brigham St, Brooklyn, NY 11229, USA",40.5956263,-73.933927,Kings County
383,"Brokered by Century 21 Amiable Realty Group II, Inc.",Co-op for sale,295000,3,1,2184.207862,"155- 23 79th St #2, Howard Beach, NY 11414, USA",40.6633466,-73.8542803,Queens County
384,Brokered by Berkshire Hathaway HomeServices New York Properties - Scarsdale,Co-op for sale,159000,2,1,1010.0,"3531 Bronxwood Ave, Bronx, NY 10469, USA",40.8762047,-73.8603621,Bronx County
385,Brokered by Douglas Elliman - Bayside,House for sale,999500,3,2,1144.0,"157-23 16th Rd, Flushing, NY 11357, USA",40.784332,-73.8045713,Queens County
386,"Brokered by Robert Defalco Realty, Inc.",Contingent,589000,3,2,2310.0,"68 Davis Ave, Staten Island, NY 10310, USA",40.6426635,-74.1108512,Richmond County
387,Brokered by EXP REALTY,Condo for sale,329000,2,1,850.0,"55 Austin Pl, Staten Island, NY 10304, USA",40.6316141,-74.0858954,Richmond County
388,"Brokered by Compass Greater Ny, Llc",House for sale,799000,3,2,1881.0,"431 E 32nd St, Brooklyn, NY 11226, USA",40.6402886,-73.9463493,Kings County
389,"Brokered by BEN BAY REALTY, CO.",House for sale,1188000,4,2,1580.0,"1268 76th St, Brooklyn, NY 11228, USA",40.6198659,-74.0087151,Kings County
390,Brokered by Pantiga Group Inc.,House for sale,729000,3,2,1400.0,"1625 Lurting Ave, Bronx, NY 10461, USA",40.846624,-73.8520911,Bronx County
391,Brokered by Real Broker NY LLC,Contingent,614900,3,2,1495.0,"30 Cunard Ave, Staten Island, NY 10304, USA",40.6142391,-74.0884134,Richmond County
392,Brokered by Keller Williams Realty NYC Grp,House for sale,599000,4,2,1500.0,"242 E 235th St, Bronx, NY 10470, USA",40.8972473,-73.868898,Bronx County
393,Brokered by RE/MAX Team,Multi-family home for sale,950000,6,2,2184.207862,"31-15 102nd St, East Elmhurst, NY 11369, USA",40.7608129,-73.8669195,Queens County
394,Brokered by Douglas Elliman - 575 Madison Ave,Condo for sale,965000,3,1,540.0,"9 Dekalb Ave #54, Brooklyn, NY 11201, USA",40.6903851,-73.9825343,Kings County
395,Brokered by American Homes Group,Multi-family home for sale,1095000,4,4,2280.0,"89 Escanaba Ave, Staten Island, NY 10308, USA",40.5505648,-74.1599018,Richmond County
396,Brokered by Serhant,Condo for sale,2295000,2,2,1242.0,"219 Hudson St #4a, New York, NY 10013, USA",40.7241501,-74.0080814,New York County
397,Brokered by Corcoran Chelsea/Flatiron,Pending,13500000,5,7,2184.207862,"112 Waverly Pl, New York, NY 10011, USA",40.7323524,-73.9993358,New York County
398,Brokered by Unlimited Homes Realty Inc,House for sale,460000,3,3,2256.0,"26 Durland Pl, Brooklyn, NY 11236, USA",40.641648,-73.9064568,Kings County
399,Brokered by Stuyvesant Heights Realty Corp,Multi-family home for sale,825000,12,6,2184.207862,"344 Ashford St, Brooklyn, NY 11230, USA",40.6739463,-73.885344,Kings County
400,Brokered by COMPASS,House for sale,1230250,3,2,1590.0,"70-17 Nansen St, Flushing, NY 11375, USA",40.7120962,-73.8518076,Queens County
401,Brokered by Homelink Homes Llc,House for sale,799999,3,2,1344.0,"2047 E 38th St, Brooklyn, NY 11234, USA",40.6099147,-73.9287144,Kings County
402,Brokered by Keller Williams Realty Liberty,Co-op for sale,259500,2,1,2184.207862,"123-35 82nd Rd #5h, Kew Gardens, NY 11415, USA",40.7121373,-73.8277084,Queens County
403,Brokered by IHome Realty Group LLC,Multi-family home for sale,1300000,15,6,4920.0,"3015 Avenue D, Brooklyn, NY 11226, USA",40.6411388,-73.9478417,Kings County
404,Brokered by Integrity Core Realty,Condo for sale,749000,2,2,1300.0,"1322 208th Pl #1605, Bayside, NY 11360, USA",40.7874921,-73.7858086,Queens County
405,Brokered by American Homes Group,House for sale,265000,2,1,660.0,"19 Vera St, Staten Island, NY 10305, USA",40.5849224,-74.0968781,Richmond County
406,Brokered by RE MAX Elite,House for sale,575000,2,1,900.0,"190 Beach 109th St, Rockaway Park, NY 11694, USA",40.5809134,-73.8302012,Queens County
407,Brokered by Homesmart Homes and Estates,Multi-family home for sale,849000,4,2,2180.0,"2033 Hobart Ave, Bronx, NY 10461, USA",40.8528127,-73.8312235,Bronx County
408,NoBroker,House for sale,875000,2,2,1214.0,"244-89 61st Ave, Flushing, NY 11362, USA",40.7565472,-73.7339718,Queens County
409,"Brokered by Neuhaus Realty, Inc.",House for sale,599999,3,2,1360.0,"68 Watchogue Rd, Staten Island, NY 10314, USA",40.613911,-74.133028,Richmond County
410,Brokered by Real Broker NY LLC,Multi-family home for sale,1150000,5,3,2184.207862,"162-14 97th St, Howard Beach, NY 11414, USA",40.6542535,-73.8350556,Queens County
411,Brokered by Douglas Elliman - Bayside,Multi-family home for sale,1295000,4,3,2440.0,"16-38 157th St, Flushing, NY 11357, USA",40.78403,-73.80579,Queens County
412,Brokered by Sowae Corp,House for sale,250000,3,1,1376.0,"4413 Avenue M, Brooklyn, NY 11234, USA",40.6212165,-73.9324344,Kings County
413,Brokered by Daniel Gale Sotheby's International Realty,Townhouse for sale,1648000,3,4,1751.0,"7 Middlemay Cir, Flushing, NY 11375, USA",40.7179519,-73.8427778,Queens County
414,Brokered by Voro Llc,House for sale,1675000,4,5,2184.207862,"85-33 Radnor St, Jamaica, NY 11432, USA",40.7169141,-73.7831551,Queens County
415,Brokered by EXIT REALTY PREMIER,House for sale,950000,3,2,1748.0,"66-23 Alderton St, Flushing, NY 11374, USA",40.7188985,-73.8587988,Queens County
416,Brokered by COMPASS,Co-op for sale,449500,1,1,2184.207862,"180 Thompson St, New York, NY 10012, USA",40.7278952,-73.9998294,New York County
417,Brokered by All American Realty Management,Pending,184888,3,1,500.0,"61-35 98th St #15a, Rego Park, NY 11374, USA",40.7343409,-73.859014,Queens County
418,Brokered by Spire Group Inc.- Main Office,Condo for sale,399000,3,1,500.0,"664 W 161st St #1f, New York, NY 10032, USA",40.8374911,-73.9456039,New York County
419,Brokered by Llk Homes Realty Inc.,Co-op for sale,209000,1,1,1078.0,"4410 Cayuga Ave Bsmt B3, Bronx, NY 10471, USA",40.8915963,-73.8989828,Bronx County
420,Brokered by COMPASS,Co-op for sale,280000,3,2,1100.0,"1506 Overing St str3, Bronx, NY 10461, USA",40.8409736,-73.8456248,Bronx County
421,Brokered by EXP Realty - HAUPPAUGE,House for sale,625000,3,2,2184.207862,"132-11 Centerville St, Ozone Park, NY 11417, USA",40.6765364,-73.8351774,Queens County
422,Brokered by Sotheby's International Realty - Downtown Manhattan,Co-op for sale,275000,3,1,2184.207862,"419 E 87th St #3a, New York, NY 10128, USA",40.7772579,-73.9476695,New York County
423,"Brokered by F.G. VOLPE REALTY ""SERVICING STATEN ISLAND""",Multi-family home for sale,924800,4,3,2049.0,"315 Main St, Staten Island, NY 10307, USA",40.5075446,-74.2461088,Richmond County
424,Brokered by Nexthome All Island,House for sale,1300000,6,4,2112.0,"222-44 41st Rd, Flushing, NY 11361, USA",40.7645123,-73.7595302,Queens County
425,"Brokered by Neuhaus Realty, Inc.",Multi-family home for sale,995000,5,2,2288.0,"65 Rensselaer Ave, Staten Island, NY 10312, USA",40.5501403,-74.1810379,Richmond County
426,Brokered by Douglas Elliman - 1995 Broadway,Condo for sale,16500000,5,4,4105.0,"2150 Broadway, New York, NY 10023, USA",40.7814599,-73.9806864,New York County
427,Brokered by Douglas Elliman - 1995 Broadway,Condo for sale,16500000,5,4,4105.0,"2150 Broadway, New York, NY 10023, USA",40.7814599,-73.9806864,New York County
428,Brokered by Trademarko Realty Inc,Multi-family home for sale,998000,5,3,1738.0,"95-15 108th St, South Richmond Hill, NY 11419, USA",40.6898026,-73.836542,Queens County
429,"Brokered by Tom Crimmins Realty, Ltd.",Multi-family home for sale,899000,7,3,1980.0,"1009 Forest Ave, Staten Island, NY 10310, USA",40.6275175,-74.1233766,Richmond County
430,Brokered by Akcess24homes Inc,Multi-family home for sale,849000,6,5,2184.207862,"137-06 132nd Ave, Jamaica, NY 11436, USA",40.669692,-73.8003434,Queens County
431,Brokered by COMPASS,Co-op for sale,235000,3,1,2184.207862,"133 Beach 120th St #2e, Rockaway Park, NY 11694, USA",40.576751,-73.8398387,Queens County
432,Brokered by Coldwell Banker American Homes,House for sale,399999,2,1,2184.207862,"320 Beach 101st St, Rockaway Park, NY 11694, USA",40.5853532,-73.8227113,Queens County
433,Brokered by Sowae Corp,House for sale,520000,4,2,1701.0,"860 Herkimer St, Brooklyn, NY 11233, USA",40.6781418,-73.9250576,Kings County
434,Brokered by Realty Executives Powerhouse,Condo for sale,485000,3,2,2184.207862,"901 E 106th St #1a, Brooklyn, NY 11236, USA",40.6479766,-73.8936697,Kings County
435,Brokered by Madison Estates Sotheby's International Realty,Co-op for sale,215000,3,1,1100.0,"1075 Ocean Pkwy #1c, Brooklyn, NY 11230, USA",40.622324,-73.9695073,Kings County
436,Brokered by Coldwell Banker Advantage,Multi-family home for sale,1288000,6,5,2640.0,"1010 Huguenot Ave, Staten Island, NY 10312, USA",40.5294592,-74.1903024,Richmond County
437,Brokered by GANG JASON A,Co-op for sale,270000,2,2,900.0,"33-05 92nd St #1c, Jackson Heights, NY 11372, USA",40.7562792,-73.8758052,Queens County
438,Brokered by Douglas Elliman - 3544 Johnson Ave,Co-op for sale,375000,2,2,1200.0,"3635 Johnson Ave #3g, Bronx, NY 10463, USA",40.8876529,-73.909649,Bronx County
439,Brokered by Corcoran SoHo,Co-op for sale,565000,1,1,2184.207862,"78 8th Ave #2k, Brooklyn, NY 11215, USA",40.6733809,-73.9732475,Kings County
440,Brokered by B Square Realty,Multi-family home for sale,849000,4,3,2184.207862,"65 Grant Ave, Brooklyn, NY 11208, USA",40.6895034,-73.8684501,Kings County
441,Brokered by Exit Alliance Realty,Co-op for sale,199000,2,1,2184.207862,"89-00 170th St #7e, Jamaica, NY 11432, USA",40.7092156,-73.7912209,Queens County
442,Brokered by Corcoran Williamsburg Bedford,House for sale,5500000,8,6,9000.0,"5041 Goodridge Ave, Bronx, NY 10471, USA",40.8985084,-73.902753,Bronx County
443,Brokered by TALK OF THE TOWN REALTY C,House for sale,699000,3,2,2350.0,"2138 Coleman St, Brooklyn, NY 11234, USA",40.6095856,-73.9253159,Kings County
444,Brokered by The Agency,Condo for sale,27750000,7,8,8139.0,"551 W 21st St #15a, New York, NY 10011, USA",40.7474926,-74.0072666,New York County
445,Brokered by Keller Williams Realty Elite,House for sale,739000,3,1,1148.0,"248-08 82nd Ave, Jamaica, NY 11426, USA",40.7386816,-73.7202723,Queens County
446,Brokered by Keller Williams Realty Group,Multi-family home for sale,425000,3,2,1700.0,"747 E 217th St, Bronx, NY 10467, USA",40.8817944,-73.8617772,Bronx County
447,Brokered by RE MAX Real Estate Professionals,Co-op for sale,300000,2,1,900.0,"350 Richmond Terrace #3c, Staten Island, NY 10301, USA",40.6479387,-74.0852701,Richmond County
448,Brokered by Re/Max Elite,House for sale,569000,3,3,1780.0,"267 Robinson Ave, Bronx, NY 10465, USA",40.8147819,-73.8265252,Bronx County
449,Brokered by Baring Homes Corp,House for sale,789000,5,3,1273.0,"223-30 107th Ave, Jamaica, NY 11429, USA",40.7084501,-73.7316272,Queens County
450,Brokered by COMPASS,Condo for sale,10500000,3,3,2753.0,"1 Wall St #4101, New York, NY 10005, USA",40.7075029,-74.011653,New York County
451,Brokered by Corcoran Long Island City,Co-op for sale,350000,2,1,825.0,"274 S 2nd St Apartment 30, Brooklyn, NY 11211, USA",40.711175,-73.957086,Kings County
452,Brokered by Corcoran Brooklyn Heights,Pending,5895000,8,5,6312.0,"219 Frost St, Brooklyn, NY 11211, USA",40.7185648,-73.9422548,Kings County
453,Brokered by Coldwell Banker Reliable Real Estate,Multi-family home for sale,1250000,7,4,2184.207862,"346 50th St, Brooklyn, NY 11220, USA",40.6468782,-74.0136737,Kings County
454,Brokered by Douglas Elliman - 156 Montague,Townhouse for sale,1499999,4,2,2264.0,"3623 Avenue T, Brooklyn, NY 11234, USA",40.6087059,-73.9290715,Kings County
455,Brokered by Brownstone Real Estate LLC - Carroll Gardens,Multi-family home for sale,1488000,6,2,2184.207862,"7302 11th Ave, Brooklyn, NY 11228, USA",40.624169,-74.010925,Kings County
456,Brokered by Sell Your Home NY Inc,Multi-family home for sale,699000,3,3,2184.207862,"11448 127th St, Jamaica, NY 11420, USA",40.6793322,-73.8130504,Queens County
457,Brokered by Liberty Chateau Realty Inc,House for sale,924900,3,2,1404.0,"1559 W 4th St, Brooklyn, NY 11204, USA",40.6094348,-73.9777343,Kings County
458,Brokered by Mach Realty Llc,Foreclosure,560000,4,2,2318.0,"456 E 134th St, Bronx, NY 10454, USA",40.8056419,-73.9229736,Bronx County
459,Brokered by Century 21 Realty First,Multi-family home for sale,1998000,12,8,5100.0,"4015 Atlantic Ave, Brooklyn, NY 11224, USA",40.5745179,-74.0068304,Kings County
460,Brokered by KELLER WILLIAMS REALTY LANDMARK II,Pending,309000,3,2,2184.207862,"151-40 88th St #5j, Howard Beach, NY 11414, USA",40.6674344,-73.8479327,Queens County
461,Brokered by Landmark International R E Llc,House for sale,999000,4,2,2184.207862,"65-07 181st St, Flushing, NY 11365, USA",40.7365353,-73.7913358,Queens County
462,Brokered by B Square Realty,Condo for sale,699000,2,2,833.0,"214- 10 15th Ave #4b, Bayside, NY 11360, USA",40.7873388,-73.7794685,Queens County
463,Brokered by Apple Realty Group Corp,Co-op for sale,278500,2,1,2184.207862,"65-38 Booth St #6e, Rego Park, NY 11374, USA",40.7267837,-73.8587799,Queens County
464,Brokered by COMPASS,Co-op for sale,738000,3,2,2184.207862,"303 E 57th St #39a, New York, NY 10022, USA",40.7595774,-73.964779,New York County
465,Brokered by COMPASS,House for sale,900000,4,4,2700.0,"12 W 5th Rd, Broad Channel, NY 11693, USA",40.6110299,-73.8195062,Queens County
466,Brokered by Re/Max Elite,Co-op for sale,369000,1,1,1470.0,"123-10 Ocean Prom #7h, Rockaway Park, NY 11694, USA",40.5756358,-73.8423199,Queens County
467,Brokered by Premium Choice Realty Corp,House for sale,609000,3,2,1620.0,"4384 Locust Point Dr, Bronx, NY 10465, USA",40.8165837,-73.8006996,Bronx County
468,Brokered by Keller Williams Rlty Landmark,Condo for sale,758000,3,2,1278.0,"327 Endeavor Pl, College Point, NY 11356, USA",40.7928823,-73.8449212,Queens County
469,Brokered by Gillani Homes Inc.,Condo for sale,728000,3,2,1890.0,"166 Rolling Hill Green, Staten Island, NY 10312, USA",40.55065,-74.193355,Richmond County
470,Brokered by Liberty Chateau Realty Inc,House for sale,314900,3,3,1200.0,"595 Glenmore Ave, Brooklyn, NY 11207, USA",40.6744942,-73.8883757,Kings County
471,Brokered by Tscherne Realty Inc,House for sale,1298000,3,2,2046.0,"62-15 82nd Pl, Flushing, NY 11379, USA",40.7239521,-73.8747783,Queens County
472,Brokered by Magic Of Great Neck Realty Inc,Co-op for sale,1095000,4,4,2500.0,"27110 Grand Central Pkwy, Queens Village, NY 11005, USA",40.7564761,-73.7212008,Queens County
473,Brokered by Liberty Chateau Realty Inc,Condo for sale,434900,3,2,1286.0,"6 Greentree Ln #6, Staten Island, NY 10314, USA",40.6085756,-74.1610387,Richmond County
474,Brokered by Douglas Elliman - 3544 Johnson Ave,Co-op for sale,375000,2,2,1350.0,"4601 Henry Hudson Pkwy W a8, Bronx, NY 10471, USA",40.8938465,-73.9091368,Bronx County
475,Brokered by Link Ny Realty,Multi-family home for sale,1375000,14,8,6000.0,"1826 Radcliff Ave, Bronx, NY 10462, USA",40.8485623,-73.8574586,Bronx County
476,"Brokered by OneKey MLS LLC - Realmart Realty, LLC",Townhouse for sale,4680000,3,4,2400.0,"128 E 38th St, New York, NY 10016, USA",40.7489947,-73.9783819,New York County
477,Brokered by O Kane Realty,Co-op for sale,549000,2,2,1200.0,"69-10 108th St #6c, Forest Hills, NY 11375, USA",40.724514,-73.8458441,Queens County
478,Brokered by Northshore Properties Realty,House for sale,549000,3,1,1400.0,"225 Bement Ave, Staten Island, NY 10310, USA",40.6368544,-74.1124571,Richmond County
479,Brokered by Keller Williams Realty Staten Island,House for sale,950000,3,2,1520.0,"67-44 Kessel St, Flushing, NY 11375, USA",40.7157274,-73.8563447,Queens County
480,Brokered by LoHo Realty Inc,Condo for sale,388000,3,1,2184.207862,"157 Broome St #3e, New York, NY 10002, USA",40.7162732,-73.9849864,New York County
481,"Brokered by Sotheby's International Realty, Inc.",Townhouse for sale,5600000,6,6,4917.0,"111 E 19th St, New York, NY 10003, USA",40.7375348,-73.9872447,New York County
482,Brokered by Strictly Realty,Multi-family home for sale,1600000,8,6,3472.0,"85-29 66th Ave, Flushing, NY 11374, USA",40.7189686,-73.8626041,Queens County
483,Brokered by Douglas Elliman - Franklin Square,Multi-family home for sale,1399000,6,2,2184.207862,"61-29 75th St, Flushing, NY 11379, USA",40.721725,-73.8839773,Queens County
484,Brokered by Corcoran Brooklyn Heights,Pending,529900,1,1,630.0,"175 Adams St #10e, Brooklyn, NY 11201, USA",40.6985714,-73.9881911,Kings County
485,Brokered by Prime Realty,Pending,999000,5,2,2184.207862,"59-14 69th St, Flushing, NY 11378, USA",40.7227469,-73.8941061,Queens County
486,Brokered by Winzone Realty Inc,Condo for sale,575000,2,2,2184.207862,"81-15 Queens Blvd #3c, Elmhurst, NY 11373, USA",40.7373082,-73.878333,Queens County
487,Brokered by Keller Williams Points North,Pending,659900,3,4,2184.207862,"216-10 17th Ave th53, Bayside, NY 11360, USA",40.7855084,-73.7762312,Queens County
488,Brokered by BHHS New York Properties,Townhouse for sale,2200000,6,3,2385.0,"484A 7th Ave, Brooklyn, NY 11215, USA",40.6621056,-73.9857576,Kings County
489,Brokered by Project Queens LLC,Multi-family home for sale,898888,5,2,1550.0,"249-07 88th Rd, Jamaica, NY 11426, USA",40.7282381,-73.7158123,Queens County
490,"Brokered by Nest Seekers International, Midtown",House for sale,1250000,5,4,3427.0,"148 Clay Pit Rd, Staten Island, NY 10309, USA",40.5395581,-74.2229079,Richmond County
491,"Brokered by Compass Greater New York, LLC",Multi-family home for sale,1188000,3,2,2240.0,"1861 82nd St, Brooklyn, NY 11214, USA",40.6085532,-73.998257,Kings County
492,Brokered by Coldwell Banker Advantage,Multi-family home for sale,869999,5,3,2080.0,"428 Bradley Ave, Staten Island, NY 10314, USA",40.6005525,-74.1314512,Richmond County
493,Brokered by Top Nest Inc,Co-op for sale,219000,3,1,1050.0,"2229 Knapp St #2a, Brooklyn, NY 11229, USA",40.5988908,-73.9334675,Kings County
494,Brokered by Cross Country Realty,Multi-family home for sale,799000,6,2,2184.207862,"737 Pine St, Brooklyn, NY 11208, USA",40.6672674,-73.8686224,Kings County
495,Brokered by R Jaundoo Realty Llc,Co-op for sale,298000,3,2,1100.0,"1425 Thieriot Ave #6l, Bronx, NY 10460, USA",40.8363242,-73.8654755,Bronx County
496,Brokered by Re/Max Edge,House for sale,1248888,4,4,3500.0,"25 Tarring St, Staten Island, NY 10306, USA",40.5646314,-74.1243252,Richmond County
497,Brokered by Corcoran East Side,Pending,1075000,2,2,955.0,"313 W 118th St #3d, New York, NY 10026, USA",40.8061576,-73.9550949,New York County
498,Brokered by Corcoran Park Slope,Pending,1695000,2,2,1572.0,"633 Prospect Pl #1, Brooklyn, NY 11216, USA",40.6750114,-73.9554645,Kings County
499,Brokered by Brown Harris Stevens,Condo for sale,3795000,3,2,1887.0,"30 Main St, Brooklyn, NY 11201, USA",40.702988,-73.9907803,Kings County
500,Brokered by Sold By Bart R E Partners Inc,Condo for sale,550000,2,2,2184.207862,"6248 Mt Olivet Crescent APT 1A, Flushing, NY 11379, USA",40.7135475,-73.895855,Queens County
501,Brokered by Sotheby's International Realty - Downtown Manhattan,Co-op for sale,775000,3,1,2184.207862,"46 Commerce St # 5, New York, NY 10014, USA",40.7313539,-74.0050572,New York County
502,Brokered by Wonica REALTORS & Appraisers,Foreclosure,249900,2,2,800.0,"1100 Clove Rd, Staten Island, NY 10301, USA",40.6189484,-74.1071576,Richmond County
503,Brokered by Keller Williams Realty Empire,House for sale,650000,4,1,1152.0,"318 Arthur Kill Rd, Staten Island, NY 10308, USA",40.5663057,-74.1529549,Richmond County
504,Brokered by Corcoran Brooklyn Heights,Co-op for sale,410000,1,1,2184.207862,"8701 Shore Rd Apt 435, Brooklyn, NY 11209, USA",40.6249201,-74.0404698,Kings County
505,Brokered by Momentum Real Estate Llc,Multi-family home for sale,1650000,9,5,4320.0,"2331 W 12th St, Brooklyn, NY 11223, USA",40.5906586,-73.9818321,Kings County
506,Brokered by Brown Harris Stevens,Pending,1600000,2,2,1100.0,"159 W 24th St #5b, New York, NY 10011, USA",40.7448219,-73.9944632,New York County
507,Brokered by Douglas Elliman - Bayside,Co-op for sale,325000,2,1,2184.207862,"67-12 Yellowstone Blvd #1b, Flushing, NY 11375, USA",40.7280894,-73.8494828,Queens County
508,Brokered by Precious Properties Corp.,Contingent,275000,2,1,900.0,"177 3rd St #1, Staten Island, NY 10306, USA",40.5735927,-74.1200228,Richmond County
509,Brokered by Keller Williams Realty NYC Grp,House for sale,700000,3,2,1620.0,"3610 Corlear Ave, Bronx, NY 10463, USA",40.8844018,-73.9028342,Bronx County
510,Brokered by Chase Global Realty Corp,House for sale,930000,3,2,2184.207862,"32-16 61st St, Flushing, NY 11377, USA",40.7555333,-73.9016851,Queens County
511,Brokered by Today Realty Corp.,Condo for sale,379000,1,2,704.0,"190 Schofield St #3i, Bronx, NY 10464, USA",40.845063,-73.783581,Bronx County
512,Brokered by Mjr Real Estate Llc,Co-op for sale,568888,3,2,1100.0,"98-05 63rd Rd, Rego Park, NY 11374, USA",40.7322223,-73.8588845,Queens County
513,Brokered by Connie Profaci Realty,House for sale,1200000,4,3,2052.0,"244 4 Corners Rd, Staten Island, NY 10304, USA",40.59194,-74.1087406,Richmond County
514,Brokered by Wonica REALTORS & Appraisers,Foreclosure,899900,3,3,2550.0,"712 Katan Ave, Staten Island, NY 10312, USA",40.5499354,-74.1709931,Richmond County
515,Brokered by COMPASS,Condo for sale,799999,3,2,1200.0,"14-12 Bonnie Ln #2, Bayside, NY 11360, USA",40.7859137,-73.7868778,Queens County
516,Brokered by Sowae Corp,Multi-family home for sale,300000,3,4,2184.207862,"348 Legion St, Brooklyn, NY 11212, USA",40.6601546,-73.9163716,Kings County
517,Brokered by Island Advantage Realty LLC,Foreclosure,750000,4,3,3098.0,"3037 Richmond Rd, Staten Island, NY 10306, USA",40.5758238,-74.1227343,Richmond County
518,Brokered by Prodigy Real Estate Inc.,House for sale,669999,4,2,1196.0,"416 Colon Ave, Staten Island, NY 10308, USA",40.5598117,-74.1585168,Richmond County
519,Brokered by RE MAX Elite,Contingent,575000,2,1,1200.0,"15 Portland Pl, Staten Island, NY 10301, USA",40.6337278,-74.0936101,Richmond County
520,NoBroker,Co-op for sale,299000,3,1,2184.207862,"2212 Brigham St #3c, Brooklyn, NY 11229, USA",40.5987787,-73.9350489,Kings County
521,Brokered by American Homes Group,House for sale,548800,3,4,1440.0,"89 Taft Ave, Staten Island, NY 10301, USA",40.6409456,-74.0859933,Richmond County
522,Brokered by Peter Ashe Real Estate- Peter Ashe Real Estate,Townhouse for sale,28500000,7,9,12300.0,"14 E 69th St, New York, NY 10021, USA",40.7699341,-73.9675072,New York County
523,Brokered by Realty Executives Today,Co-op for sale,259000,2,1,2184.207862,"8425 118th St Apt 1d, Kew Gardens, NY 11415, USA",40.7041499,-73.83371,Queens County
524,Brokered by Sbny Re,Co-op for sale,425000,2,1,2184.207862,"7025 Yellowstone Blvd Apt 14d, Forest Hills, NY 11375, USA",40.7226099,-73.8495,Queens County
525,Brokered by NEXTHOME PLATINUM PROPERTIES,House for sale,950000,4,2,2200.0,"68 Schenck Ave, Brooklyn, NY 11207, USA",40.6795412,-73.8904428,Kings County
526,Brokered by Adcny Realty Corp,Co-op for sale,185000,2,1,600.0,"526 W 158th St #64, New York, NY 10032, USA",40.833945,-73.9432359,New York County
527,Brokered by Century Homes Realty Group LLC,House for sale,1688888,4,3,2364.0,"373 Manor Rd, Douglaston, NY 11363, USA",40.7773521,-73.7464296,Queens County
528,Brokered by Realty Executives Today,Co-op for sale,259000,2,1,2184.207862,"8425 118th St Apt 1d, Kew Gardens, NY 11415, USA",40.7041499,-73.83371,Queens County
529,Brokered by NEXTHOME PLATINUM PROPERTIES,House for sale,950000,4,2,2200.0,"68 Schenck Ave, Brooklyn, NY 11207, USA",40.6795412,-73.8904428,Kings County
530,Brokered by Century Homes Realty Group LLC,House for sale,1688888,4,3,2364.0,"373 Manor Rd, Douglaston, NY 11363, USA",40.7773521,-73.7464296,Queens County
531,Brokered by Elite Synergy Realty Inc,Multi-family home for sale,689000,6,3,2184.207862,"262 E 197th St, Bronx, NY 10458, USA",40.8681745,-73.8897652,Bronx County
532,Brokered by Charles Rutenberg Realty Inc,Co-op for sale,419000,2,1,2184.207862,"15058 Jewel Ave # 75b, Flushing, NY 11367, USA",40.7312799,-73.8192399,Queens County
533,Brokered by Bright Horizons Realty Inc,House for sale,1199000,4,2,2184.207862,"4193 Ocean Ave, Brooklyn, NY 11235, USA",40.5783044,-73.9471644,Kings County
534,Brokered by Keller Williams Realty Greater Nassau,House for sale,899000,3,4,2208.0,"82 Mulberry Ave, Staten Island, NY 10314, USA",40.5955552,-74.1677939,Richmond County
535,Brokered by qvtopservice,House for sale,675000,3,2,2184.207862,"102-26 213th St, Jamaica, NY 11429, USA",40.7121557,-73.7452804,Queens County
536,Brokered by BHHS New York Properties,Co-op for sale,875000,2,1,2184.207862,"20 E 35th St #3d, New York, NY 10016, USA",40.748098,-73.9824791,New York County
537,Brokered by Corcoran Westside Columbus,House for sale,899000,2,1,1130.0,"529 W 42nd St #6l, New York, NY 10036, USA",40.7604194,-73.9968086,New York County
538,Brokered by EBMG LLC,Co-op for sale,219000,2,1,2184.207862,"8377 Woodhaven Blvd Apt 2d, Woodhaven, NY 11421, USA",40.6999899,-73.8539,Queens County
539,Brokered by RE/MAX Opulent,Co-op for sale,120000,2,1,600.0,"2962 Decatur Ave #1c, Bronx, NY 10458, USA",40.8683656,-73.8832093,Bronx County
540,Brokered by Corcoran,Condo for sale,470000,2,1,2184.207862,"581 Academy St #1g, New York, NY 10034, USA",40.8640024,-73.9231918,New York County
541,Brokered by ERA Insite Realty Services,Co-op for sale,229000,2,1,950.0,"4315 Webster Ave #3l, Bronx, NY 10470, USA",40.8995193,-73.8623678,Bronx County
542,Brokered by Momentum Real Estate Llc,Multi-family home for sale,3000000,3,32,11760.0,"8001 New Utrecht Ave, Brooklyn, NY 11214, USA",40.6115483,-74.0008656,Kings County
543,Brokered by Douglas Elliman - Bayside,Pending,1199000,5,4,2184.207862,"116 Audley St, Kew Gardens, NY 11415, USA",40.7090268,-73.8335998,Queens County
544,Brokered by Remax Edge - RE/MAX EDGE,Multi-family home for sale,1498000,9,8,2961.0,"3812 Cypress Ave, Brooklyn, NY 11224, USA",40.5784148,-74.0064631,Kings County
545,Brokered by Corcoran East Side,Condo for sale,2000000,4,3,2000.0,"411 E 53rd St #4j, New York, NY 10022, USA",40.7557937,-73.9642805,New York County
546,"Brokered by Nest Seekers International, Midtown",Condo for sale,50000000,6,6,6569.0,"100 Vandam St #20a, New York, NY 10013, USA",40.7266327,-74.0088321,New York County
547,Brokered by Jerry Fink Real Estate Inc,House for sale,550000,3,2,2184.207862,"156-23 88th St, Howard Beach, NY 11414, USA",40.6628113,-73.8453503,Queens County
548,Brokered by Ditommaso Real Estate,Pending,499000,3,1,1176.0,"161 Greenleaf Ave, Staten Island, NY 10310, USA",40.6265387,-74.1263932,Richmond County
549,"Brokered by Annkey Realty, Inc.",Multi-family home for sale,800000,6,3,2202.0,"860 E 232nd St, Bronx, NY 10466, USA",40.8909806,-73.8528183,Bronx County
550,"Brokered by Century 21 Amiable Realty Group II, Inc.",Co-op for sale,239000,2,1,798.0,"15507 86th St # 102, Howard Beach, NY 11414, USA",40.6649999,-73.84857,Queens County
551,Brokered by Sotheby's International Realty - Downtown Manhattan,Townhouse for sale,29950000,10,13,8750.0,"26 Washington Square W, New York, NY 10011, USA",40.7322213,-73.9986277,New York County
552,Brokered by RE MAX Elite,House for sale,674999,3,2,1440.0,"107 Salamander Ct, Staten Island, NY 10309, USA",40.5394128,-74.2228391,Richmond County
553,Brokered by Voro Llc,House for sale,1228000,3,2,950.0,"154-69 26th Ave, Flushing, NY 11354, USA",40.7739766,-73.8070988,Queens County
554,Brokered by Goldstone N Y Realty Llc,Condo for sale,880000,4,4,2400.0,"120-10 Ketch Ct, College Point, NY 11356, USA",40.7934553,-73.8471618,Queens County
555,Brokered by Keller Williams Rlty Landmark,Co-op for sale,369888,2,2,2184.207862,"120 Queens Blvd #98, Rego Park, NY 11374, USA",40.726843,-73.85458,Queens County
556,Brokered by Douglas Elliman - 575 Madison Ave,Co-op for sale,500000,2,2,2184.207862,"465 Park Ave Apt 34e, New York, NY 10022, USA",40.7616461,-73.9701294,New York County
557,Brokered by BKNY TROY AVENUE REALTY CORP,Multi-family home for sale,499000,4,3,2184.207862,"205-05 Jamaica Ave, Jamaica, NY 11423, USA",40.713904,-73.754948,Queens County
558,"Brokered by Robert E. Hill, Inc.",Co-op for sale,175849,2,1,850.0,"60 Knolls Crescent #8m, Bronx, NY 10463, USA",40.879078,-73.9175196,Bronx County
559,Brokered by Exp Realty,Multi-family home for sale,899975,6,3,1952.0,"861 E 231st St, Bronx, NY 10466, USA",40.8906352,-73.853094,Bronx County
560,Brokered by Trusted Property Advisors Corp,House for sale,1474000,4,2,2050.0,"71-28 Manse St, Flushing, NY 11375, USA",40.7114417,-73.8490778,Queens County
561,"Brokered by Neuhaus Realty, Inc.",House for sale,2750000,6,5,6300.0,"79 Grandview Terrace, Staten Island, NY 10308, USA",40.5462525,-74.1481727,Richmond County
562,Brokered by EXIT REALTY FIRST CHOICE,House for sale,1288000,4,2,1700.0,"76-66 174th St, Flushing, NY 11366, USA",40.7248068,-73.7953763,Queens County
563,Brokered by 5 Boro Realty Corp,Foreclosure,499000,4,2,1428.0,"719 Vermont St, Brooklyn, NY 11207, USA",40.6618245,-73.890638,Kings County
564,Brokered by DiTommaso Real Estate,House for sale,989000,4,4,2400.0,"70 Weed Ave, Staten Island, NY 10306, USA",40.5657552,-74.1051158,Richmond County
565,Brokered by Prospes Real Estate Corp,House for sale,650000,3,2,2184.207862,"827 Richmond Rd, Staten Island, NY 10304, USA",40.6071254,-74.0925892,Richmond County
566,"Brokered by Robert DeFalco Realty, Inc.",Contingent,1999999,4,4,4803.0,"181 Androvette Ave, Staten Island, NY 10312, USA",40.5268622,-74.189752,Richmond County
567,Brokered by Serhant,Townhouse for sale,5990000,4,4,3750.0,"96 Bank St, New York, NY 10014, USA",40.7363228,-74.0064402,New York County
568,Brokered by TREBACH REALTY INC,Co-op for sale,1235000,3,2,2184.207862,"2501 Palisade Ave Apt D2, Bronx, NY 10463, USA",40.8799728,-73.9221419,Bronx County
569,Brokered by City Connections Realty,Co-op for sale,785000,1,1,2184.207862,"10 Park Ave #10c, New York, NY 10016, USA",40.7473555,-73.9813841,New York County
570,Brokered by Coldwell Banker Reliable Real Estate,Co-op for sale,750000,3,2,1750.0,"870 Riverside Dr #5d, New York, NY 10032, USA",40.8368955,-73.9465033,New York County
571,Brokered by Modern Spaces Love Your Place,Multi-family home for sale,1400000,3,3,2184.207862,"25-01 23rd Ave, Astoria, NY 11105, USA",40.7770879,-73.9162687,Queens County
572,Brokered by CENTURY 21 Kafcos Realty,Multi-family home for sale,865000,6,3,2464.0,"910 Revere Ave, Bronx, NY 10465, USA",40.8297242,-73.8263414,Bronx County
573,Brokered by COMPASS,Co-op for sale,324000,1,1,2184.207862,"35-31 85th St, Jackson Heights, NY 11372, USA",40.7512505,-73.8814433,Queens County
574,Brokered by Matias Real Estate,House for sale,1100000,3,4,3750.0,"7126 Amboy Rd, Staten Island, NY 10307, USA",40.5136885,-74.2364803,Richmond County
575,Brokered by A P Services Inc,Multi-family home for sale,2295000,3,7,2184.207862,"4415 Atlantic Ave, Brooklyn, NY 11224, USA",40.5757955,-74.009975,Kings County
576,Brokered by Douglas Elliman - 575 Madison Ave,House for sale,8950000,4,2,2570.0,"69 Orange St, Brooklyn, NY 11201, USA",40.6990407,-73.9929045,Kings County
577,Brokered by RE MAX Central,Multi-family home for sale,1348888,3,4,2450.0,"252 Ionia Ave, Staten Island, NY 10312, USA",40.5430335,-74.182131,Richmond County
578,"Brokered by Robert E. Hill, Inc.",Co-op for sale,220000,2,1,850.0,"5620 Netherland Ave #3g, Bronx, NY 10471, USA",40.9049354,-73.9060897,Bronx County
579,Brokered by Brown Harris Stevens - 100 Seventh Avenue,Co-op for sale,185000,1,1,2184.207862,"789 MacDonough St #4g, Brooklyn, NY 11233, USA",40.684563,-73.914482,Kings County
580,Brokered by Houlihan Lawrence,House for sale,499000,2,2,1350.0,"514 E 235th St, Bronx, NY 10470, USA",40.8978428,-73.8633611,Bronx County
581,Brokered by ROBERT DEFALCO REALTY INC,Multi-family home for sale,999999,4,3,1980.0,"362 90th St, Brooklyn, NY 11209, USA",40.620076,-74.0306109,Kings County
582,Brokered by Corcoran East Side,Townhouse for sale,4995000,2,2,2000.0,"51 Barrow St, New York, NY 10014, USA",40.7319679,-74.0043858,New York County
583,Brokered by Corcoran Park Avenue South,Pending,700000,2,1,2184.207862,"248 E 7th St, New York, NY 10009, USA",40.7235651,-73.9781799,New York County
584,Brokered by RE MAX 1st Choice,House for sale,1180000,4,4,1820.0,"45-33 Zion St, Flushing, NY 11362, USA",40.7668584,-73.7375575,Queens County
585,Brokered by RE MAX 1st Choice,Condo for sale,609000,2,2,2184.207862,"132-03 Sanford Ave #3b, Flushing, NY 11355, USA",40.7550154,-73.8329807,Queens County
586,"Brokered by AMERIHOMES REALTY OF NY, INC.",Co-op for sale,250000,2,1,950.0,"2525 W 2nd St #2e, Brooklyn, NY 11223, USA",40.5875717,-73.9712821,Kings County
587,Brokered by Real Broker NY LLC,House for sale,689000,3,2,2184.207862,"111-45 120th St, Jamaica, NY 11420, USA",40.6794706,-73.8195636,Queens County
588,Brokered by Jaymore Realty Llc,Multi-family home for sale,585000,4,2,2184.207862,"12-86 Augustina Ave, Far Rockaway, NY 11691, USA",40.6082787,-73.7495095,Queens County
589,"Brokered by Robert Defalco Realty, Inc.",Condo for sale,109500,3,1,550.0,"1000 Clove Rd #9f, Staten Island, NY 10301, USA",40.6202645,-74.1099106,Richmond County
590,Brokered by Corcoran SoHo,Co-op for sale,299000,3,1,640.0,"410 E 57th St #8b, New York, NY 10022, USA",40.7578323,-73.9624557,New York County
591,Brokered by Re/Max Central,House for sale,995000,3,2,1987.0,"23 Howard Ave, Staten Island, NY 10301, USA",40.6293682,-74.0870368,Richmond County
592,Brokered by RE MAX Real Estate Professionals,Multi-family home for sale,1499000,6,2,3144.0,"338 77th St, Brooklyn, NY 11209, USA",40.629498,-74.02725,Kings County
593,Brokered by Douglas Elliman - Port Washington,Co-op for sale,299000,2,1,2184.207862,"19315 37th Ave # 177, Flushing, NY 11358, USA",40.7626299,-73.78916,Queens County
594,Brokered by New Heights Realty,Co-op for sale,279000,3,1,550.0,"57 Park Terrace W #3f, New York, NY 10034, USA",40.8712698,-73.9178529,New York County
595,Brokered by Joshuas Realty,House for sale,235000,3,2,2184.207862,"131-16 115th Ave, Jamaica, NY 11420, USA",40.6797652,-73.8091668,Queens County
596,Brokered by COMPASS,Co-op for sale,17900000,6,4,2184.207862,"41 Central Park W #11a, New York, NY 10023, USA",40.7713789,-73.9798579,New York County
597,Brokered by COMPASS,Townhouse for sale,950000,5,3,2288.0,"914 Pine St, Brooklyn, NY 11208, USA",40.6626245,-73.8680207,Kings County
598,Brokered by KELLER WILLIAMS REALTY LANDMARK II,House for sale,859000,2,2,950.0,"149-47 26th Ave, Flushing, NY 11354, USA",40.7746518,-73.81583,Queens County
599,"Brokered by Compass Greater Ny, Llc",House for sale,1999000,5,4,2000.0,"34-51 74th Street, Jackson Heights, NY 11372, USA",40.7518706,-73.8922741,Queens County
600,Brokered by Ha Jones Realty & Management,House for sale,650000,5,3,2184.207862,"36A Rochester Ave, Brooklyn, NY 11233, USA",40.677921,-73.9277691,Kings County
601,Brokered by RE MAX Real Estate Professionals,House for sale,1100000,4,3,1400.0,"7619 10th Ave, Brooklyn, NY 11228, USA",40.6231568,-74.0148411,Kings County
602,Brokered by E Realty International Corp,Condo for sale,478900,1,1,554.0,"65-18 Austin St #2c, Rego Park, NY 11374, USA",40.7259759,-73.8599803,Queens County
603,Brokered by Atlantic Apple Realty,Multi-family home for sale,560000,5,2,2624.0,"45 St Pauls Ave, Staten Island, NY 10301, USA",40.6366099,-74.0778245,Richmond County
604,Brokered by Momentum Real Estate LLC,Multi-family home for sale,868000,3,4,2024.0,"108 Dutchess Ave, Staten Island, NY 10304, USA",40.5963657,-74.0997473,Richmond County
605,Brokered by Regent Realty,House for sale,999000,3,2,2184.207862,"196-11 45th Ave, Flushing, NY 11358, USA",40.7562931,-73.7849475,Queens County
606,"Brokered by Harlem Lofts Inc.- Harlem Lofts, Inc.",Co-op for sale,149000,1,1,375.0,"219 W 144th St Apt 41, New York, NY 10030, USA",40.8213094,-73.9399984,New York County
607,Brokered by Island Advantage Realty Llc,House for sale,594900,4,2,1355.0,"121-42 Laurelton Pkwy, Jamaica, NY 11422, USA",40.6824809,-73.7279494,Queens County
608,Brokered by Behfar Team Llc,House for sale,799000,3,2,2184.207862,"1462 E 23rd St, Brooklyn, NY 11210, USA",40.6146692,-73.9515915,Kings County
609,Brokered by Homesmart Crossisland,Multi-family home for sale,985000,6,5,2184.207862,"145-90 222nd St, Jamaica, NY 11413, USA",40.6615069,-73.7581972,Queens County
610,Brokered by Jortevsky Real Estate Firm,House for sale,685000,4,2,2625.0,"116-33 198th St, St. Albans, NY 11412, USA",40.6946313,-73.7540488,Queens County
611,Brokered by Mark International Real Estate,Contingent,479888,3,2,1188.0,"124 Hampton Pl, Staten Island, NY 10309, USA",40.549099,-74.2148258,Richmond County
612,Brokered by Keller Williams NYC,Condo for sale,355000,1,1,514.0,"961 Washington Ave #1g, Brooklyn, NY 11225, USA",40.6660348,-73.9612418,Kings County
613,Brokered by Corcoran Westside Columbus,Co-op for sale,260000,2,1,2184.207862,"515 W 135th St #4c, New York, NY 10031, USA",40.8196151,-73.9532441,New York County
614,Brokered by COMPASS,Townhouse for sale,2600000,5,5,4057.0,"65 Gates Ave, Brooklyn, NY 11238, USA",40.6846326,-73.9660028,Kings County
615,Brokered by East Coast Realty Partners,Co-op for sale,220000,1,1,2184.207862,"65-65 Wetherole St #4o, Rego Park, NY 11374, USA",40.725937,-73.8572908,Queens County
616,Brokered by Charles H. Greenthal Property,Co-op for sale,489000,2,2,1549.0,"26910 Grand Central Pkwy #27g, Queens, NY 11005, USA",40.7577991,-73.7159564,Queens County
617,Brokered by BERGEN BASIN REALTY,Multi-family home for sale,1288000,5,2,2375.0,"1853 Benson Ave, Brooklyn, NY 11214, USA",40.6042803,-74.0030547,Kings County
618,Brokered by COMPASS,Condo for sale,200000,2,3,1260.0,"2 E 55th St, New York, NY 10022, USA",40.7613979,-73.9746128,New York County
619,Brokered by Prime Realty,House for sale,625000,3,1,2184.207862,"64-01 Pleasantview St, Flushing, NY 11379, USA",40.7158932,-73.8820836,Queens County
620,Brokered by Elegran Real Estate And Development,Condo for sale,2245000,2,3,1724.0,"171 E 84th St #3b, New York, NY 10028, USA",40.7779756,-73.9551546,New York County
621,Brokered by Douglas Elliman - Syosset,House for sale,899000,3,2,2184.207862,"163-43 90th St, Jamaica, NY 11414, USA",40.6511946,-73.8405509,Queens County
622,Brokered by COMPASS,Townhouse for sale,575000,4,2,1330.0,"411 Montauk Ave., Brooklyn, NY 11208, USA",40.6683511,-73.8757315,Kings County
623,"Brokered by BEN BAY REALTY, CO.",House for sale,588888,4,2,1640.0,"187 Latimer Ave, Staten Island, NY 10314, USA",40.5986261,-74.1817717,Richmond County
624,Brokered by Fave Realty Inc,Multi-family home for sale,899999,8,4,2184.207862,"375 Linden Blvd, Brooklyn, NY 11203, USA",40.6531909,-73.9453969,Kings County
625,Brokered by RE MAX Voyage,Co-op for sale,315000,1,1,850.0,"3531 85th St Apt 2m, Jackson Heights, NY 11372, USA",40.7520799,-73.88188,Queens County
626,"Brokered by Neuhaus Realty, Inc.",House for sale,825000,4,2,2230.0,"263 Getz Ave, Staten Island, NY 10312, USA",40.5532787,-74.1649844,Richmond County
627,Brokered by Homefinders of SI Inc.,Contingent,795000,3,3,1860.0,"166 Bancroft Ave, Staten Island, NY 10306, USA",40.5763544,-74.1099794,Richmond County
628,Brokered by BERGEN BASIN REALTY,House for sale,690000,3,2,1325.0,"2041 E 64th St, Brooklyn, NY 11234, USA",40.6173476,-73.9131449,Kings County
